[
    
    {
       "title": "East Garo Hills",
       "lat": "25.6193",
       "lng": "90.4647",
        "description": "",
        "urlsource": "East Garo Hills",
        "org_id": "tQxCnVt7ygZDlxVVwkqUHg==",
       "zvalue": "4"
   }

,

    {
       "title": "Vijayapura2",
       "lat": "13.2967",
       "lng": "77.800809",
        "description": "kvk.Vijayapura2@icar.gov.in",
        "urlsource": "Vijayapura2",
        "org_id": "7LbUSLIRgznz/poPn7uQ6A==",
       "zvalue": "4"
   }

,

    {
       "title": "Peren",
       "lat": "25.571173",
       "lng": "93.729945",
        "description": "",
        "urlsource": "Peren",
        "org_id": "7LbUSLIRgzm7i0W36mKWVg==",
       "zvalue": "4"
   }

,

    {
       "title": "Sri Potti Sriramulu Nellore 2",
       "lat": "13.944503",
       "lng": "79.605657",
        "description": "kvk.Nellore2@icar.gov.in",
        "urlsource": "Sri Potti Sriramulu Nellore 2",
        "org_id": "mCGW/s6KZ33SnjiEImGQeg==",
       "zvalue": "4"
   }

,

    {
       "title": "North 24 Parganas 2",
       "lat": "22.45",
       "lng": "88.26",
        "description": "",
        "urlsource": "<a href=http://www.crijaf.org.in/kvk2/KVK-N24Prg.htm target=_blank>North 24 Parganas 2</a>",
        "org_id": "+X8lcqlX8IWsS6Z4U29R3w==",
       "zvalue": "4"
   }

,

    {
       "title": "Nagpur 2",
       "lat": "21.367748",
       "lng": "78.892485",
        "description": "",
        "urlsource": "Nagpur 2",
        "org_id": "yI/ptAusHjCng0CnLMjlkw==",
       "zvalue": "4"
   }

,

    {
       "title": "Dhar 2",
       "lat": "22.18915",
       "lng": "74.971268",
        "description": "",
        "urlsource": "Dhar 2",
        "org_id": "Kh+VlZ18rruyzUcm9W6PrA==",
       "zvalue": "4"
   }

,

    {
       "title": "Fazilka",
       "lat": "30.403959",
       "lng": "74.026497",
        "description": "kvk.fazilka@icar.gov.in",
        "urlsource": "Fazilka",
        "org_id": "+X8lcqlX8IUvAhnnu0GFow==",
       "zvalue": "4"
   }

,

    {
       "title": "Jharsuguda",
       "lat": "21.8225",
       "lng": "84.0117",
        "description": "kvk.Jharsuguda@icar.gov.in",
        "urlsource": "<a href=http://www.jharsugudakvk.org/ target=_blank>Jharsuguda</a>",
        "org_id": "fmr/ir7XwtZlek76Vwrqug==",
       "zvalue": "4"
   }

,

    {
       "title": "Kalahandi",
       "lat": "19.923376",
       "lng": "83.156051",
        "description": "kvk.Kalahandi@icar.gov.in",
        "urlsource": "<a href=http://kvkkalahandi.org/ target=_blank>Kalahandi</a>",
        "org_id": "fmr/ir7XwtZ2/FvIqUrwyA==",
       "zvalue": "4"
   }

,

    {
       "title": "Kandhamal",
       "lat": "20.12943",
       "lng": "84.36314",
        "description": "kvk.Kandhamal@icar.gov.in",
        "urlsource": "<a href=http://kvkkandhamal.org.in target=_blank>Kandhamal</a>",
        "org_id": "fmr/ir7XwtalepZn/g8tvg==",
       "zvalue": "4"
   }

,

    {
       "title": "Kendrapara ",
       "lat": "20.52374",
       "lng": "86.44149",
        "description": "kvk.Kendrapara@icar.gov.in",
        "urlsource": "<a href=http://kendraparakvk.org target=_blank>Kendrapara </a>",
        "org_id": "fmr/ir7Xwta0GfCLKt3WRA==",
       "zvalue": "4"
   }

,

    {
       "title": "Kendujhar",
       "lat": "21.632198",
       "lng": "85.574693",
        "description": "kvk.Kendujhar@icar.gov.in",
        "urlsource": "<a href=http://www.kvkkeonjhar.org target=_blank>Kendujhar</a>",
        "org_id": "fmr/ir7XwtYcpW7gPnwR+w==",
       "zvalue": "4"
   }

,

    {
       "title": "Khordha ",
       "lat": "20.18385",
       "lng": "85.851183",
        "description": "kvk.Khordha@icar.gov.in",
        "urlsource": "<a href=http://www.kvkkhordha.org target=_blank>Khordha </a>",
        "org_id": "fmr/ir7XwtYrN/1jOvQ+ww==",
       "zvalue": "4"
   }

,

    {
       "title": "Koraput",
       "lat": "18.700392",
       "lng": "82.803328",
        "description": "kvk.Koraput@icar.gov.in",
        "urlsource": "Koraput",
        "org_id": "fmr/ir7XwtawCXilcz6+fA==",
       "zvalue": "4"
   }

,

    {
       "title": "Malkangiri  ",
       "lat": "18.537607",
       "lng": "82.2006",
        "description": "kvk.Malkangiri@icar.gov.in",
        "urlsource": "<a href=http://www.kvkmalkangiri.org target=_blank>Malkangiri  </a>",
        "org_id": "eTM5qmHRc+hikJk0l5NZIg==",
       "zvalue": "4"
   }

,

    {
       "title": "Mayurbhanj 1",
       "lat": "21.9265",
       "lng": "86.690556",
        "description": "kvk.Mayurbhanj1@icar.gov.in",
        "urlsource": "<a href=http://kvkmayurbhanj.org.in target=_blank>Mayurbhanj 1</a>",
        "org_id": "eTM5qmHRc+itUpMOMLX3vA==",
       "zvalue": "4"
   }

,

    {
       "title": "Mayurbhanj 2",
       "lat": "21.932297",
       "lng": "86.679994",
        "description": "kvk.Mayurbhanj2@icar.gov.in",
        "urlsource": "<a href=http://www.kvkmayurbhanj2.org.in target=_blank>Mayurbhanj 2</a>",
        "org_id": "eTM5qmHRc+irKrcNYQH4Wg==",
       "zvalue": "4"
   }

,

    {
       "title": "Nabarangpur",
       "lat": "19.663261",
       "lng": "82.193382",
        "description": "kvk.Nabarangpur@icar.gov.in",
        "urlsource": "<a href=http://www.kvknabarangapur.org/ target=_blank>Nabarangpur</a>",
        "org_id": "eTM5qmHRc+i4E69B0i01UA==",
       "zvalue": "4"
   }

,

    {
       "title": "Nuapada",
       "lat": "20.808306",
       "lng": "82.536207",
        "description": "kvk.Nuapada@icar.gov.in",
        "urlsource": "<a href=https://kvknuapada.ac.in/ target=_blank>Nuapada</a>",
        "org_id": "eTM5qmHRc+igsf8Oips08A==",
       "zvalue": "4"
   }

,

    {
       "title": "Nayagarh  ",
       "lat": "20.197045",
       "lng": "85.117705",
        "description": "kvk.Nayagarh@icar.gov.in",
        "urlsource": "<a href=http://www.kvknayagarh.org/ target=_blank>Nayagarh  </a>",
        "org_id": "eTM5qmHRc+hNYN8yCqzvvg==",
       "zvalue": "4"
   }

,

    {
       "title": "Puri",
       "lat": "19.962405",
       "lng": "85.822027",
        "description": "kvk.Puri@icar.gov.in",
        "urlsource": "<a href=http://kvkpuri.org target=_blank>Puri</a>",
        "org_id": "eTM5qmHRc+j/e8Nr8MGGYw==",
       "zvalue": "4"
   }

,

    {
       "title": "Rayagada  ",
       "lat": "19.077023",
       "lng": "83.81169",
        "description": "kvk.Rayagada@icar.gov.in",
        "urlsource": "<a href=http://www.kvkrayagada.org/ target=_blank>Rayagada  </a>",
        "org_id": "eTM5qmHRc+giTHXRuPi++g==",
       "zvalue": "4"
   }

,

    {
       "title": "Sambalpur",
       "lat": "21.351216",
       "lng": "83.908514",
        "description": "kvk.Sambalpur@icar.gov.in",
        "urlsource": "<a href=http://www.kvksambalpur.org target=_blank>Sambalpur</a>",
        "org_id": "eTM5qmHRc+iDKIHfScC3Zg==",
       "zvalue": "4"
   }

,

    {
       "title": "Cuttack",
       "lat": "20.423531",
       "lng": "86.166109",
        "description": "kvk.Cuttack@icar.gov.in",
        "urlsource": "<a href=http://www.kvkcuttack.com target=_blank>Cuttack</a>",
        "org_id": "eTM5qmHRc+jPkElVVUW1VA==",
       "zvalue": "4"
   }

,

    {
       "title": "Subarnapur",
       "lat": "20.849753",
       "lng": "83.860556",
        "description": "kvk.Subarnapur@icar.gov.in",
        "urlsource": "<a href=http://kvksonepur.org target=_blank>Subarnapur</a>",
        "org_id": "6bjGe6XakwcaEQlp6dnDxw==",
       "zvalue": "4"
   }

,

    {
       "title": "Sundargarh 1",
       "lat": "22.06654",
       "lng": "84.052355",
        "description": "kvk.Sundargarh1@icar.gov.in",
        "urlsource": "<a href=http://kvksundargarh-1.org target=_blank>Sundargarh 1</a>",
        "org_id": "6bjGe6Xakwed+PX+ycW5JQ==",
       "zvalue": "4"
   }

,

    {
       "title": "Sundargarh 2",
       "lat": "22.06654",
       "lng": "84.052355",
        "description": "kvk.Sundargarh2@icar.gov.in",
        "urlsource": "<a href=http://kvksundargarh2.org target=_blank>Sundargarh 2</a>",
        "org_id": "6bjGe6XakwdnvUzYQrhqwg==",
       "zvalue": "4"
   }

,

    {
       "title": "North Goa",
       "lat": "15.500975",
       "lng": "73.915195",
        "description": "kvk.NorthGoa@icar.gov.in",
        "urlsource": "<a href=http://www.kvknorthgoa.icar.gov.in target=_blank>North Goa</a>",
        "org_id": "6bjGe6XakwdSzp9dDO9CMw==",
       "zvalue": "4"
   }

,

    {
       "title": "South Goa",
       "lat": "15.267581",
       "lng": "73.962381",
        "description": "kvk.SouthGoa@icar.gov.in",
        "urlsource": "South Goa",
        "org_id": "6bjGe6Xakwdin0TcC5SuPw==",
       "zvalue": "4"
   }

,

    {
       "title": "Bagalkot ",
       "lat": "16.145478",
       "lng": "75.69206",
        "description": "kvk.Bagalkot@icar.gov.in",
        "urlsource": "<a href=http://www.kvkbagalkot.com target=_blank>Bagalkot </a>",
        "org_id": "6bjGe6XakweLsbLYrrOCHA==",
       "zvalue": "4"
   }

,

    {
       "title": "Bengaluru Rural",
       "lat": "12.971599",
       "lng": "77.594563",
        "description": "kvk.BengaluruRural@icar.gov.in",
        "urlsource": "<a href=http://www.kvkbrd.org target=_blank>Bengaluru Rural</a>",
        "org_id": "6bjGe6XakwdBcH7vSO1nBw==",
       "zvalue": "4"
   }

,

    {
       "title": "Belagavi1",
       "lat": "16.308571",
       "lng": "74.867592",
        "description": "kvk.Belagavi1@icar.gov.in",
        "urlsource": "<a href=https://kvkbelagavi1.icar.gov.in target=_blank>Belagavi1</a>",
        "org_id": "6bjGe6XakwcALtx7FwMI3A==",
       "zvalue": "4"
   }

,

    {
       "title": "Belagavi2",
       "lat": "15.893243",
       "lng": "74.744585",
        "description": "kvk.Belagavi2@icar.gov.in",
        "urlsource": "<a href=http://www.klekvk.org target=_blank>Belagavi2</a>",
        "org_id": "6bjGe6XakwdPvRcWS99C1Q==",
       "zvalue": "4"
   }

,

    {
       "title": "Ballari",
       "lat": "15.137779",
       "lng": "77.060096",
        "description": "kvk.Ballari@icar.gov.in",
        "urlsource": "<a href=http://www.kvkballari.org target=_blank>Ballari</a>",
        "org_id": "6bjGe6Xakwc24zOOLP7U5Q==",
       "zvalue": "4"
   }

,

    {
       "title": "Bidar",
       "lat": "17.986119",
       "lng": "77.485339",
        "description": "kvk.Bidar@icar.gov.in",
        "urlsource": "<a href=http://www.kvkbidar.in target=_blank>Bidar</a>",
        "org_id": "ii8smhI4exdzPv4NzC4afg==",
       "zvalue": "4"
   }

,

    {
       "title": "Vijayapura1",
       "lat": "13.2967",
       "lng": "77.800809",
        "description": "kvk.Vijayapura1@icar.gov.in",
        "urlsource": "<a href=https://kvkvijayapura.org target=_blank>Vijayapura1</a>",
        "org_id": "ii8smhI4exer5PuQYpQ2Bw==",
       "zvalue": "4"
   }

,

    {
       "title": "Chamarajanagar",
       "lat": "11.89343",
       "lng": "76.952748",
        "description": "kvk.Chamarajanagar@icar.gov.in",
        "urlsource": "<a href=http://www.kvkchamarajanagar.com target=_blank>Chamarajanagar</a>",
        "org_id": "ii8smhI4exeAI9E2xYIkFw==",
       "zvalue": "4"
   }

,

    {
       "title": "Chikkamagaluru",
       "lat": "13.123017",
       "lng": "75.628219",
        "description": "kvk.Chikkamagaluru@icar.gov.in",
        "urlsource": "<a href=https://kvkck.uahs.edu.in/ target=_blank>Chikkamagaluru</a>",
        "org_id": "ii8smhI4excJtCfJ3N0S+Q==",
       "zvalue": "4"
   }

,

    {
       "title": "Chikkaballapura",
       "lat": "13.311966",
       "lng": "78.077231",
        "description": "kvk.Chikkaballapura@icar.gov.in",
        "urlsource": "<a href=http://www.uasbangalore.edu.in/index.php/chintamani target=_blank>Chikkaballapura</a>",
        "org_id": "ii8smhI4exdQ0XiBwPPzAQ==",
       "zvalue": "4"
   }

,

    {
       "title": "Chitradurga",
       "lat": "13.957043",
       "lng": "76.645743",
        "description": "kvk.Chitradurga@icar.gov.in",
        "urlsource": "<a href=https://kvkchitradurga.karnataka.gov.in/en target=_blank>Chitradurga</a>",
        "org_id": "ii8smhI4excXpjL8Ffr6Yg==",
       "zvalue": "4"
   }

,

    {
       "title": "Dakshina Kannada",
       "lat": "12.557704",
       "lng": "75.373127",
        "description": "kvk.DakshinaKannada@icar.gov.in",
        "urlsource": "<a href=http://kvkdk.org target=_blank>Dakshina Kannada</a>",
        "org_id": "ii8smhI4exfpxwS6kWGgaw==",
       "zvalue": "4"
   }

,

    {
       "title": "Davanagere",
       "lat": "14.443304",
       "lng": "75.91056",
        "description": "kvk.Davanagere@icar.gov.in",
        "urlsource": "<a href=http://www.taralabalukvk.com target=_blank>Davanagere</a>",
        "org_id": "ii8smhI4exf9pMiiFh5fxw==",
       "zvalue": "4"
   }

,

    {
       "title": "Dharwad",
       "lat": "15.480312",
       "lng": "74.979258",
        "description": "kvk.Dharwad@icar.gov.in",
        "urlsource": "<a href=http://kvkdharwad.org target=_blank>Dharwad</a>",
        "org_id": "ii8smhI4exdfIZqYw5c/ZQ==",
       "zvalue": "4"
   }

,

    {
       "title": "Gadag",
       "lat": "15.423012",
       "lng": "75.528455",
        "description": "kvk.Gadag@icar.gov.in",
        "urlsource": "<a href=https://kvkgadag.icar.gov.in target=_blank>Gadag</a>",
        "org_id": "ii8smhI4exctJU6gL/IZ+w==",
       "zvalue": "4"
   }

,

    {
       "title": "Kalaburgi1",
       "lat": "17.360592",
       "lng": "76.814774",
        "description": "kvk.Kalaburgi1@icar.gov.in",
        "urlsource": "<a href=http://kvkgulbarga.com/ target=_blank>Kalaburgi1</a>",
        "org_id": "M7nGzhVuallZtIGrMaPGng==",
       "zvalue": "4"
   }

,

    {
       "title": "Kalaburgi 2",
       "lat": "17.039829",
       "lng": "76.79718",
        "description": "kvk.Kalaburgi2@icar.gov.in",
        "urlsource": "<a href=https://kvkrwd.karnataka.gov.in target=_blank>Kalaburgi 2</a>",
        "org_id": "M7nGzhVualm36ATSNXxTyw==",
       "zvalue": "4"
   }

,

    {
       "title": "Hassan",
       "lat": "12.981877",
       "lng": "76.053582",
        "description": "kvk.Hassan@icar.gov.in",
        "urlsource": "<a href=http://www.kvkhassan.com target=_blank>Hassan</a>",
        "org_id": "M7nGzhVualngD4c+YsLp4A==",
       "zvalue": "4"
   }

,

    {
       "title": "Haveri",
       "lat": "14.657353",
       "lng": "75.564622",
        "description": "kvk.Haveri@icar.gov.in",
        "urlsource": "<a href=http://kvkhaveri.icar.gov.in, http://kvkhaveri.in target=_blank>Haveri</a>",
        "org_id": "M7nGzhVualnkFIILy5kd2Q==",
       "zvalue": "4"
   }

,

    {
       "title": "Kodagu",
       "lat": "12.185667",
       "lng": "75.92447",
        "description": "kvk.Kodagu@icar.gov.in",
        "urlsource": "<a href=https://kvkkodagu.icar.gov.in/ target=_blank>Kodagu</a>",
        "org_id": "M7nGzhVuallkTDSiUasI+w==",
       "zvalue": "4"
   }

,

    {
       "title": "Kolar",
       "lat": "13.132067",
       "lng": "78.178209",
        "description": "kvk.Kolar@icar.gov.in",
        "urlsource": "<a href=https://kvkkolar.karnataka.gov.in target=_blank>Kolar</a>",
        "org_id": "M7nGzhVuallnYnkITffAPw==",
       "zvalue": "4"
   }

,

    {
       "title": "Koppal",
       "lat": "15.456221",
       "lng": "76.524015",
        "description": "kvk.Koppal@icar.gov.in",
        "urlsource": "<a href=http://www.kvkgangavathi.org/ target=_blank>Koppal</a>",
        "org_id": "M7nGzhVualn+fXym+4og0g==",
       "zvalue": "4"
   }

,

    {
       "title": "Mandya",
       "lat": "12.568617",
       "lng": "76.835691",
        "description": "kvk.Mandya@icar.gov.in",
        "urlsource": "Mandya",
        "org_id": "M7nGzhVualk5Tb6MjBaACA==",
       "zvalue": "4"
   }

,

    {
       "title": "Mysuru",
       "lat": "12.301705",
       "lng": "76.655102",
        "description": "kvk.Mysuru@icar.gov.in",
        "urlsource": "<a href=http://www.jsskvk.in target=_blank>Mysuru</a>",
        "org_id": "M7nGzhVualkMd1yx8fwkbQ==",
       "zvalue": "4"
   }

,

    {
       "title": "Raichur",
       "lat": "16.205898",
       "lng": "77.325761",
        "description": "kvk.Raichur@icar.gov.in",
        "urlsource": "<a href=http://kvkraichur.org target=_blank>Raichur</a>",
        "org_id": "M7nGzhVualkb+wg0PX+ftA==",
       "zvalue": "4"
   }

,

    {
       "title": "Ramanagara",
       "lat": "12.979593",
       "lng": "77.191796",
        "description": "kvk.Ramanagara@icar.gov.in",
        "urlsource": "<a href=http://www.kvkramanagara.org target=_blank>Ramanagara</a>",
        "org_id": "TvYPrAguOClt87TEWyVSGQ==",
       "zvalue": "4"
   }

,

    {
       "title": "Shivamogga",
       "lat": "13.975174",
       "lng": "75.580529",
        "description": "kvk.Shivamogga@icar.gov.in",
        "urlsource": "Shivamogga",
        "org_id": "TvYPrAguOCkd7SrISnwNSw==",
       "zvalue": "4"
   }

,

    {
       "title": "Tumakuru 2",
       "lat": "13.281809",
       "lng": "77.186046",
        "description": "kvk.Tumakuru2@icar.gov.in",
        "urlsource": "<a href=https://kvktumakuru2.icar.gov.in/ target=_blank>Tumakuru 2</a>",
        "org_id": "TvYPrAguOCmZlLetpCIrTA==",
       "zvalue": "4"
   }

,

    {
       "title": "Tumakuru 1",
       "lat": "13.281028",
       "lng": "76.361975",
        "description": "kvk.Tumakuru1@icar.gov.in",
        "urlsource": "Tumakuru 1",
        "org_id": "TvYPrAguOCkiAPRaRjglBQ==",
       "zvalue": "4"
   }

,

    {
       "title": "Udupi",
       "lat": "13.424046",
       "lng": "74.757846",
        "description": "kvk.Udupi@icar.gov.in",
        "urlsource": "Udupi",
        "org_id": "TvYPrAguOCm9gQkS+Rh8QQ==",
       "zvalue": "4"
   }

,

    {
       "title": "Uttara Kannada",
       "lat": "14.613106",
       "lng": "74.837349",
        "description": "kvk.UttaraKannada@icar.gov.in",
        "urlsource": "<a href=http://www.kvkuttarkannada.org target=_blank>Uttara Kannada</a>",
        "org_id": "TvYPrAguOClluwsvdnyYUg==",
       "zvalue": "4"
   }

,

    {
       "title": "Malappuram",
       "lat": "10.852594",
       "lng": "75.986052",
        "description": "kvk.Malappuram@icar.gov.in",
        "urlsource": "<a href=http://kvkmalappuram.kau.in target=_blank>Malappuram</a>",
        "org_id": "TvYPrAguOCnVV+KIPPKTWg==",
       "zvalue": "4"
   }

,

    {
       "title": "Kottayam",
       "lat": "9.627375",
       "lng": "76.431592",
        "description": "kvk.Kottayam@icar.gov.in",
        "urlsource": "<a href=http://kvkkottayam.kau.in/ target=_blank>Kottayam</a>",
        "org_id": "TvYPrAguOCmaaTjqtYkQ3A==",
       "zvalue": "4"
   }

,

    {
       "title": "Kannur",
       "lat": "12.083129",
       "lng": "75.397099",
        "description": "kvk.Kannur@icar.gov.in",
        "urlsource": "Kannur",
        "org_id": "TvYPrAguOCmoSpo0lxEFIw==",
       "zvalue": "4"
   }

,

    {
       "title": "Thrissur",
       "lat": "10.546884",
       "lng": "76.267991",
        "description": "kvk.Thrissur@icar.gov.in",
        "urlsource": "<a href=http://kvkthrissur.kau.in/ target=_blank>Thrissur</a>",
        "org_id": "TvYPrAguOClAiq/Q7Kq9Ew==",
       "zvalue": "4"
   }

,

    {
       "title": "Alappuzha",
       "lat": "9.149764",
       "lng": "76.514069",
        "description": "kvk.Alappuzha@icar.gov.in",
        "urlsource": "<a href=https://www.kvkalappuzha.icar.gov.in target=_blank>Alappuzha</a>",
        "org_id": "wBWBKfFULBUSXvd+U0Rwdg==",
       "zvalue": "4"
   }

,

    {
       "title": "Kollam",
       "lat": "8.989487",
       "lng": "76.820021",
        "description": "kvk.Kollam@icar.gov.in",
        "urlsource": "<a href=http://kvkkollam.kau.in/ target=_blank>Kollam</a>",
        "org_id": "wBWBKfFULBUPz7jk/GhtPA==",
       "zvalue": "4"
   }

,

    {
       "title": "Idukki ",
       "lat": "9.959372",
       "lng": "77.221522",
        "description": "kvk.Idukki@icar.gov.in",
        "urlsource": "<a href=http://www.kvkidukki.org target=_blank>Idukki </a>",
        "org_id": "wBWBKfFULBVv3hGOvXeVBA==",
       "zvalue": "4"
   }

,

    {
       "title": "Pathanamthitta",
       "lat": "9.22737",
       "lng": "76.41268",
        "description": "kvk.Pathanamthitta@icar.gov.in",
        "urlsource": "<a href=http://www.kvkcard.org target=_blank>Pathanamthitta</a>",
        "org_id": "wBWBKfFULBVy9VvvOaxXBg==",
       "zvalue": "4"
   }

,

    {
       "title": "Kasaragod",
       "lat": "12.535428",
       "lng": "74.96563",
        "description": "kvk.Kasaragod@icar.gov.in",
        "urlsource": "<a href=http://www.cpcri.gov.in/index.php/2014-10-14-05-46-20/kasaragod target=_blank>Kasaragod</a>",
        "org_id": "wBWBKfFULBUI/GuUWEW4IQ==",
       "zvalue": "4"
   }

,

    {
       "title": "Kozhikode",
       "lat": "11.603876",
       "lng": "75.824169",
        "description": "kvk.Kozhikode@icar.gov.in",
        "urlsource": "<a href=http://www.kvkcalicut.gov.in target=_blank>Kozhikode</a>",
        "org_id": "wBWBKfFULBV3tnV6/mmCPw==",
       "zvalue": "4"
   }

,

    {
       "title": "Wayanad",
       "lat": "11.6165",
       "lng": "76.214015",
        "description": "kvk.Wayanad@icar.gov.in",
        "urlsource": "<a href=http://kvkwayanad.kau.in/ target=_blank>Wayanad</a>",
        "org_id": "wBWBKfFULBU0lt7TC+M3qQ==",
       "zvalue": "4"
   }

,

    {
       "title": "Palakkad",
       "lat": "10.812677",
       "lng": "76.190238",
        "description": "kvk.Palakkad@icar.gov.in",
        "urlsource": "<a href=http://kvkpalakkad.kau.in target=_blank>Palakkad</a>",
        "org_id": "wBWBKfFULBVTZ7eXdOlapQ==",
       "zvalue": "4"
   }

,

    {
       "title": "Thiruvananthapuram",
       "lat": "8.561812",
       "lng": "77.047506",
        "description": "kvk.Thiruvananthapuram@icar.gov.in",
        "urlsource": "<a href=http://www.mitrakvk.org target=_blank>Thiruvananthapuram</a>",
        "org_id": "wBWBKfFULBUuNZlcbVBsrA==",
       "zvalue": "4"
   }

,

    {
       "title": "Ernakulam",
       "lat": "9.988287",
       "lng": "76.272115",
        "description": "kvk.Ernakulam@icar.gov.in",
        "urlsource": "<a href=http://kvkernakulam.org.in/ target=_blank>Ernakulam</a>",
        "org_id": "wBWBKfFULBVMXNpwF8vysw==",
       "zvalue": "4"
   }

,

    {
       "title": "lakshadweep",
       "lat": "10.3235",
       "lng": "72.354",
        "description": "kvk.Lakshadweep@icar.gov.in",
        "urlsource": "lakshadweep",
        "org_id": "/sJMZ4yzRROSvZzR4fh2GA==",
       "zvalue": "4"
   }

,

    {
       "title": "Puducherry",
       "lat": "11.940657",
       "lng": "79.766083",
        "description": "kvk.Puducherry@icar.gov.in",
        "urlsource": "<a href=https://www.kvkpuducherry.org target=_blank>Puducherry</a>",
        "org_id": "/sJMZ4yzRRNnhGfZBTPXng==",
       "zvalue": "4"
   }

,

    {
       "title": "Karaikal",
       "lat": "10.924904",
       "lng": "79.827191",
        "description": "kvk.Karaikal@icar.gov.in",
        "urlsource": "Karaikal",
        "org_id": "/sJMZ4yzRRO8B8E9Jm9Y1Q==",
       "zvalue": "4"
   }

,

    {
       "title": "Ariyalur  ",
       "lat": "11.13706",
       "lng": "79.40515",
        "description": "kvk.Ariyalur@icar.gov.in",
        "urlsource": "<a href=http://www.kvkariyalur.org target=_blank>Ariyalur  </a>",
        "org_id": "/sJMZ4yzRROls3QWDGbNyw==",
       "zvalue": "4"
   }

,

    {
       "title": "Dharmapuri",
       "lat": "12.219464",
       "lng": "78.059825",
        "description": "kvk.Dharmapuri@icar.gov.in",
        "urlsource": "<a href=https://tnau.ac.in/site/kvk-dharmapuri/ target=_blank>Dharmapuri</a>",
        "org_id": "/sJMZ4yzRRMhiZAknDfEMg==",
       "zvalue": "4"
   }

,

    {
       "title": "Virudhunagar",
       "lat": "9.558602",
       "lng": "78.104412",
        "description": "kvk.Virudhunagar@icar.gov.in",
        "urlsource": "<a href=https://tnau.ac.in/kvk-virudhunagar/ target=_blank>Virudhunagar</a>",
        "org_id": "/sJMZ4yzRRMMRx96u1R6TA==",
       "zvalue": "4"
   }

,

    {
       "title": "Karur ",
       "lat": "10.729138",
       "lng": "78.418347",
        "description": "kvk.Karur@icar.gov.in",
        "urlsource": "<a href=http://www.skvkk.org target=_blank>Karur </a>",
        "org_id": "/sJMZ4yzRROPWIlZQnMbFA==",
       "zvalue": "4"
   }

,

    {
       "title": "Perambalur  ",
       "lat": "11.30913",
       "lng": "78.915855",
        "description": "kvk.Perambalur@icar.gov.in",
        "urlsource": "<a href=http://www.roeverkvk.res.in target=_blank>Perambalur  </a>",
        "org_id": "/sJMZ4yzRRNYwwpdQSMaoA==",
       "zvalue": "4"
   }

,

    {
       "title": "Pudukkottai",
       "lat": "11.3",
       "lng": "78.902084",
        "description": "kvk.Pudukkottai@icar.gov.in",
        "urlsource": "<a href=https://tnau.ac.in/kvk-pudukottai/ target=_blank>Pudukkottai</a>",
        "org_id": "/sJMZ4yzRROA4kDDLpshcw==",
       "zvalue": "4"
   }

,

    {
       "title": "Ramanathapuram",
       "lat": "9.363872",
       "lng": "78.869866",
        "description": "kvk.Ramanathapuram@icar.gov.in",
        "urlsource": "<a href=http://www.kvkramnad.in target=_blank>Ramanathapuram</a>",
        "org_id": "/sJMZ4yzRROCG0cH3H0JFQ==",
       "zvalue": "4"
   }

,

    {
       "title": "Kanyakumari",
       "lat": "8.210535",
       "lng": "77.452455",
        "description": "kvk.Kanniyakumari@icar.gov.in",
        "urlsource": "Kanyakumari",
        "org_id": "zR3QNzb0A3RREN02jQU8Zg==",
       "zvalue": "4"
   }

,

    {
       "title": "Villupuram 1",
       "lat": "12.236884",
       "lng": "79.649951",
        "description": "kvk.Viluppuram@icar.gov.in",
        "urlsource": "<a href=https://tnau.ac.in/site/kvk-villupuram/ target=_blank>Villupuram 1</a>",
        "org_id": "zR3QNzb0A3SLQzuLZ059uA==",
       "zvalue": "4"
   }

,

    {
       "title": "Madurai",
       "lat": "9.969856",
       "lng": "78.203998",
        "description": "kvk.Madurai@icar.gov.in",
        "urlsource": "<a href=http://www.kvkmdu.org/ target=_blank>Madurai</a>",
        "org_id": "zR3QNzb0A3RKk+7ggMwt9A==",
       "zvalue": "4"
   }

,

    {
       "title": "Vellore",
       "lat": "12.921452",
       "lng": "79.010225",
        "description": "kvk.Vellore@icar.gov.in",
        "urlsource": "<a href=http://kvkvellore.org/ target=_blank>Vellore</a>",
        "org_id": "zR3QNzb0A3SaAZiF+49tKA==",
       "zvalue": "4"
   }

,

    {
       "title": "Thiruvarur",
       "lat": "10.772139",
       "lng": "79.408559",
        "description": "kvk.Thiruvarur@icar.gov.in",
        "urlsource": "<a href=http://www.kvkthiruvarur.com target=_blank>Thiruvarur</a>",
        "org_id": "zR3QNzb0A3Q39fNc3vuDWA==",
       "zvalue": "4"
   }

,

    {
       "title": "Thiruvallur",
       "lat": "13.118405",
       "lng": "79.957076",
        "description": "kvk.Thiruvallur@icar.gov.in",
        "urlsource": "<a href=http://www.kvktirur.org target=_blank>Thiruvallur</a>",
        "org_id": "zR3QNzb0A3T3GxfMVeJOeg==",
       "zvalue": "4"
   }

,

    {
       "title": "Nagapattinam  ",
       "lat": "10.754979",
       "lng": "79.799353",
        "description": "kvk.Nagapattinam@icar.gov.in",
        "urlsource": "Nagapattinam  ",
        "org_id": "zR3QNzb0A3T3mYW6Z3MD+w==",
       "zvalue": "4"
   }

,

    {
       "title": "Namakkal   ",
       "lat": "11.154987",
       "lng": "78.161845",
        "description": "kvk.Namakkal@icar.gov.in",
        "urlsource": "<a href=http://www.kvknamakkal.com target=_blank>Namakkal   </a>",
        "org_id": "zR3QNzb0A3RerlO13GbbDg==",
       "zvalue": "4"
   }

,

    {
       "title": "Sivaganga",
       "lat": "10.112801",
       "lng": "78.698483",
        "description": "kvk.Sivaganga@icar.gov.in",
        "urlsource": "<a href=https://tanuvas.ac.in/kvk_kundrakudi.php target=_blank>Sivaganga</a>",
        "org_id": "zR3QNzb0A3QejXwmezb5kQ==",
       "zvalue": "4"
   }

,

    {
       "title": "Thoothukudi",
       "lat": "8.736959",
       "lng": "78.014517",
        "description": "kvk.Thoothukudi@icar.gov.in",
        "urlsource": "<a href=http://www.scadkvk.org target=_blank>Thoothukudi</a>",
        "org_id": "0lclu7VymZx3yJ37Qmkc1A==",
       "zvalue": "4"
   }

,

    {
       "title": "Salem",
       "lat": "11.567121",
       "lng": "78.140291",
        "description": "kvk.Salem@icar.gov.in",
        "urlsource": "<a href=https://tnau.ac.in/kvk-salem/ target=_blank>Salem</a>",
        "org_id": "0lclu7VymZy66lFhR3fDSA==",
       "zvalue": "4"
   }

,

    {
       "title": "Theni  ",
       "lat": "9.866695",
       "lng": "77.453109",
        "description": "kvk.Theni@icar.gov.in",
        "urlsource": "Theni  ",
        "org_id": "0lclu7VymZykWa4hAmgssQ==",
       "zvalue": "4"
   }

,

    {
       "title": "Tirunelveli ",
       "lat": "9.0779",
       "lng": "77.3452",
        "description": "",
        "urlsource": "<a href=http://www.rvskvk.org/ target=_blank>Tirunelveli </a>",
        "org_id": "0lclu7VymZy0HPQpQNJsnQ==",
       "zvalue": "4"
   }

,

    {
       "title": "Krishnagiri",
       "lat": "12.577748",
       "lng": "78.264821",
        "description": "",
        "urlsource": "<a href=http://www.krishnagirikvk.org/ target=_blank>Krishnagiri</a>",
        "org_id": "0lclu7VymZyP74BTL7h4NQ==",
       "zvalue": "4"
   }

,

    {
       "title": "Tiruvannamalai",
       "lat": "12.750205",
       "lng": "79.615095",
        "description": "kvk.Tiruvannamalai@icar.gov.in",
        "urlsource": "<a href=http://www.kvkthiruvannamalai.com target=_blank>Tiruvannamalai</a>",
        "org_id": "0lclu7VymZwc+dFu6RbOvQ==",
       "zvalue": "4"
   }

,

    {
       "title": "Erode",
       "lat": "11.454069",
       "lng": "77.398657",
        "description": "kvk.Erode@icar.gov.in",
        "urlsource": "<a href=http://www.myradakvk.org target=_blank>Erode</a>",
        "org_id": "0lclu7VymZyAs3cPOUoW5g==",
       "zvalue": "4"
   }

,

    {
       "title": "Dindigul",
       "lat": "10.280178",
       "lng": "77.934495",
        "description": "kvk.Dindigul@icar.gov.in",
        "urlsource": "<a href=http://icarkvkdindigul.org/ target=_blank>Dindigul</a>",
        "org_id": "0lclu7VymZwXy+hjQQSoYQ==",
       "zvalue": "4"
   }

,

    {
       "title": "Cuddalore",
       "lat": "11.550406",
       "lng": "79.046753",
        "description": "kvk.Cuddalore@icar.gov.in",
        "urlsource": "<a href=http://www.kvkcuddalore.com target=_blank>Cuddalore</a>",
        "org_id": "0lclu7VymZx+FPQueOQpFQ==",
       "zvalue": "4"
   }

,

    {
       "title": "Kancheepuram",
       "lat": "12.816295",
       "lng": "80.034636",
        "description": "kvk.Kancheepuram@icar.gov.in",
        "urlsource": "Kancheepuram",
        "org_id": "0lclu7VymZwtd7P6DBrhug==",
       "zvalue": "4"
   }

,

    {
       "title": "The Nilgiris",
       "lat": "11.252651",
       "lng": "76.432185",
        "description": "kvk.TheNilgiris@icar.gov.in",
        "urlsource": "The Nilgiris",
        "org_id": "jmDZZPNAPcYpIg+C2tOKkw==",
       "zvalue": "4"
   }

,

    {
       "title": "Coimbatore",
       "lat": "11.238937",
       "lng": "76.880093",
        "description": "kvk.Coimbatore@icar.gov.in",
        "urlsource": "<a href=http://www.avinashilingamkvk.org target=_blank>Coimbatore</a>",
        "org_id": "jmDZZPNAPcYBSSjFn+4MyA==",
       "zvalue": "4"
   }

,

    {
       "title": "Tiruchirappalli",
       "lat": "10.896628",
       "lng": "78.526363",
        "description": "kvk.Tiruchirappalli@icar.gov.in",
        "urlsource": "<a href=https://tnau.ac.in/site/kvk-trichy/ target=_blank>Tiruchirappalli</a>",
        "org_id": "jmDZZPNAPcb+irOrlmYXGA==",
       "zvalue": "4"
   }

,

    {
       "title": "Gaya 2",
       "lat": "24.61361111",
       "lng": "84.66916667",
        "description": "",
        "urlsource": "Gaya 2",
        "org_id": "odKg5KmDpyolcj3dfvsHJA==",
       "zvalue": "4"
   }

,

    {
       "title": "Chirang",
       "lat": "26.528953",
       "lng": "90.502277",
        "description": "kvk.chirang@icar.gov.in",
        "urlsource": "<a href=https://kvkchirang.aau.ac.in/ target=_blank>Chirang</a>",
        "org_id": "jmDZZPNAPcarFNo1sYGlcw==",
       "zvalue": "4"
   }

,

    {
       "title": "Uakoti",
       "lat": "24.279722",
       "lng": "91.988888",
        "description": "",
        "urlsource": "Uakoti",
        "org_id": "Jj4jX7lFf6vsHhMZ+9e+Gg==",
       "zvalue": "4"
   }

,

    {
       "title": "Malda 2",
       "lat": "24.58482",
       "lng": "88.08413",
        "description": "",
        "urlsource": "Malda 2",
        "org_id": "+X8lcqlX8IXpcjZsKuKWUA==",
       "zvalue": "4"
   }

,

    {
       "title": "Singrauli",
       "lat": "24.19921",
       "lng": "82.664547",
        "description": "",
        "urlsource": "<a href=http://jnkvv.org/JNKVV_EXTENSION/EXTENSION_KVK_Index.aspx?CC=2012 target=_blank>Singrauli</a>",
        "org_id": "+GSBJRyuPqq8v3jPkjH3FQ==",
       "zvalue": "4"
   }

,

    {
       "title": "South West Delhi",
       "lat": "28.569516",
       "lng": "76.896282",
        "description": "kvk.delhi@icar.gov.in",
        "urlsource": "<a href=http://www.kvkdelhi.org target=_blank>South West Delhi</a>",
        "org_id": "GXRVfBuW3rT6cVuoAUisug==",
       "zvalue": "4"
   }

,

    {
       "title": "Ambala",
       "lat": "30.305424",
       "lng": "76.929539",
        "description": "kvk.ambala@icar.gov.in",
        "urlsource": "<a href=http://www.kvkambala.org.in/ target=_blank>Ambala</a>",
        "org_id": "GXRVfBuW3rS6rgsXEh6N1Q==",
       "zvalue": "4"
   }

,

    {
       "title": "Gurgaon",
       "lat": "28.371721",
       "lng": "76.988927",
        "description": "kvk.gurgoan@icar.gov.in",
        "urlsource": "<a href=http://www.iari.res.in/ target=_blank>Gurgaon</a>",
        "org_id": "GXRVfBuW3rQZELCFEP9xFQ==",
       "zvalue": "4"
   }

,

    {
       "title": "Bhiwani",
       "lat": "28.812617",
       "lng": "76.131568",
        "description": "kvk.bhiwani@icar.gov.in",
        "urlsource": "Bhiwani",
        "org_id": "GXRVfBuW3rQoM9G17enunw==",
       "zvalue": "4"
   }

,

    {
       "title": "Faridabad",
       "lat": "28.415541",
       "lng": "77.390586",
        "description": "kvk.faridabad@icar.gov.in",
        "urlsource": "<a href=http://hau.ernet.in/kvk target=_blank>Faridabad</a>",
        "org_id": "GXRVfBuW3rTNQRjPk2Za9Q==",
       "zvalue": "4"
   }

,

    {
       "title": "Fatehabad",
       "lat": "29.529059",
       "lng": "75.50177",
        "description": "kvk.fatehabad@icar.gov.in",
        "urlsource": "Fatehabad",
        "org_id": "GXRVfBuW3rQveHzik9/ESA==",
       "zvalue": "4"
   }

,

    {
       "title": "Hisar",
       "lat": "29.32654",
       "lng": "75.449767",
        "description": "kvk.hisar@icar.gov.in",
        "urlsource": "<a href=https://hau.ac.in/college/krishi-vigyan-kendra-sadalpur-hisar target=_blank>Hisar</a>",
        "org_id": "GXRVfBuW3rR5uCc552JUsw==",
       "zvalue": "4"
   }

,

    {
       "title": "Jhajjar",
       "lat": "28.588682",
       "lng": "76.6868",
        "description": "kvk.jhajjar@icar.gov.in",
        "urlsource": "Jhajjar",
        "org_id": "GXRVfBuW3rTPO5NyvWoaog==",
       "zvalue": "4"
   }

,

    {
       "title": "Jind",
       "lat": "29.308108",
       "lng": "76.364247",
        "description": "kvk.jind@icar.gov.in",
        "urlsource": "Jind",
        "org_id": "GXRVfBuW3rRkLG4alZ7Fmg==",
       "zvalue": "4"
   }

,

    {
       "title": "Kaithal",
       "lat": "29.7663",
       "lng": "76.4098",
        "description": "kvk.kaithal@icar.gov.in",
        "urlsource": "Kaithal",
        "org_id": "1cEww3aMtmbkWsQv2YhT2g==",
       "zvalue": "4"
   }

,

    {
       "title": "Kurukshetra",
       "lat": "29.964427",
       "lng": "76.875516",
        "description": "kvk.kurukshetra@icar.gov.in",
        "urlsource": "<a href=https://www.hau.ac.in/college/krishi-vigyan-kendra-kurukshetra target=_blank>Kurukshetra</a>",
        "org_id": "1cEww3aMtmbmDgOwEQi1vA==",
       "zvalue": "4"
   }

,

    {
       "title": "Mahendragarh",
       "lat": "28.271882",
       "lng": "76.156822",
        "description": "kvk.mahendragarh@icar.gov.in",
        "urlsource": "Mahendragarh",
        "org_id": "1cEww3aMtmbVxoo9fZIIMA==",
       "zvalue": "4"
   }

,

    {
       "title": "Panipat",
       "lat": "29.363616",
       "lng": "77.019006",
        "description": "kvk.panipat@icar.gov.in",
        "urlsource": "Panipat",
        "org_id": "1cEww3aMtmbiAaGXuC5WEQ==",
       "zvalue": "4"
   }

,

    {
       "title": "Rewari",
       "lat": "28.182507",
       "lng": "76.603318",
        "description": "kvk.rewari@icar.gov.in",
        "urlsource": "<a href=http://www.kvkrewari.org target=_blank>Rewari</a>",
        "org_id": "1cEww3aMtmb6ipjsYS2iKA==",
       "zvalue": "4"
   }

,

    {
       "title": "Rohtak",
       "lat": "28.883316",
       "lng": "76.621015",
        "description": "kvk.rohtak@icar.gov.in",
        "urlsource": "<a href=https://www.hau.ac.in/college/krishi-vigyan-kendra-rohtak target=_blank>Rohtak</a>",
        "org_id": "1cEww3aMtmatL2nrGEiGsg==",
       "zvalue": "4"
   }

,

    {
       "title": "Sirsa",
       "lat": "29.538753",
       "lng": "75.041969",
        "description": "kvk.sirsa@icar.gov.in",
        "urlsource": "<a href=http://hau.ac.in/kvk/index.php?sli_id=306&page_id=306&kvk_id=16 target=_blank>Sirsa</a>",
        "org_id": "1cEww3aMtmaoj33aNS7Q0w==",
       "zvalue": "4"
   }

,

    {
       "title": "Sonipat",
       "lat": "28.95115",
       "lng": "77.043725",
        "description": "kvk.sonipat@icar.gov.in",
        "urlsource": "Sonipat",
        "org_id": "1cEww3aMtmauckl8zil/cQ==",
       "zvalue": "4"
   }

,

    {
       "title": "Yamunanagar",
       "lat": "30.088628",
       "lng": "77.2118",
        "description": "kvk.yamunanagar@icar.gov.in",
        "urlsource": "Yamunanagar",
        "org_id": "1cEww3aMtmafoElVRdcOug==",
       "zvalue": "4"
   }

,

    {
       "title": "Karnal",
       "lat": "29.700168",
       "lng": "76.971824",
        "description": "kvk.karnal@icar.gov.in",
        "urlsource": "<a href=http://ndri.res.in target=_blank>Karnal</a>",
        "org_id": "1cEww3aMtmaVplC98qHm3A==",
       "zvalue": "4"
   }

,

    {
       "title": "Bilaspur HP",
       "lat": "31.415543",
       "lng": "76.649471",
        "description": "kvk.bilaspurhp@icar.gov.in",
        "urlsource": "<a href=http://hillagric.ac.in/extension/dee-extra/KrishiVigyanKendras/kvk_berthin/kvk_berthin_(bilaspur).htm target=_blank>Bilaspur HP</a>",
        "org_id": "V7Smkkb6JpbmQtkGSVyonA==",
       "zvalue": "4"
   }

,

    {
       "title": "Chamba",
       "lat": "32.603839",
       "lng": "76.081251",
        "description": "kvk.chamba@icar.gov.in",
        "urlsource": "<a href=http://www.yspuniversity.ac.in/kvk-chamba/index.html target=_blank>Chamba</a>",
        "org_id": "V7Smkkb6Jpbs40BqDLRq1w==",
       "zvalue": "4"
   }

,

    {
       "title": "Hamirpur",
       "lat": "31.480899",
       "lng": "76.576413",
        "description": "kvk.hamirpur@icar.gov.in",
        "urlsource": "<a href=http://www.hillagric.ac.in/extension/dee-extra/KrishiVigyanKendras/kvk_bara/index.htm target=_blank>Hamirpur</a>",
        "org_id": "V7Smkkb6Jpa7Yn2V6JtSKQ==",
       "zvalue": "4"
   }

,

    {
       "title": "Kangra",
       "lat": "32.104725",
       "lng": "76.268973",
        "description": "kvk.kangra@icar.gov.in",
        "urlsource": "<a href=http://www.hillagric.ac.in/extension/dee-extra/KrishiVigyanKendras/kvk_kangra/index.html target=_blank>Kangra</a>",
        "org_id": "V7Smkkb6Jpamq1j9uOJx/w==",
       "zvalue": "4"
   }

,

    {
       "title": "Kinnaur",
       "lat": "31.538088",
       "lng": "78.267347",
        "description": "kvk.kinnaur@icar.gov.in",
        "urlsource": "<a href=http://www.yspuniversity.ac.in/kvk-kinnaur/index.html target=_blank>Kinnaur</a>",
        "org_id": "V7Smkkb6JpYHrnNGX7vvdQ==",
       "zvalue": "4"
   }

,

    {
       "title": "Kullu",
       "lat": "31.834882",
       "lng": "77.170831",
        "description": "kvk.kullu@icar.gov.in",
        "urlsource": "<a href=http://hillagric.ac.in:1003/cskhpau/kvk-kullu/ target=_blank>Kullu</a>",
        "org_id": "V7Smkkb6JpZuyguWfsyHtg==",
       "zvalue": "4"
   }

,

    {
       "title": "Lahaul & Spiti 1",
       "lat": "32.700572",
       "lng": "76.688164",
        "description": "kvk.lahaulspiti@icar.gov.in",
        "urlsource": "<a href=http://www.hillagric.ac.in/extension/dee-extra/KrishiVigyanKendras/kvk_kukumseri/index.htm target=_blank>Lahaul & Spiti 1</a>",
        "org_id": "V7Smkkb6JpZN6Wg5BLkV+w==",
       "zvalue": "4"
   }

,

    {
       "title": "Mandi",
       "lat": "31.538406",
       "lng": "76.896336",
        "description": "kvk.mandi@icar.gov.in",
        "urlsource": "<a href=http://hillagric.ac.in/extension/dee-extra/KrishiVigyanKendras/kvk_mandi/index.htm target=_blank>Mandi</a>",
        "org_id": "V7Smkkb6JpbFRkmV5dr1rA==",
       "zvalue": "4"
   }

,

    {
       "title": "Shimla",
       "lat": "31.204553",
       "lng": "77.752361",
        "description": "kvk.shimla@icar.gov.in",
        "urlsource": "<a href=http://www.yspuniversity.ac.in/kvk-rohru/index.htm target=_blank>Shimla</a>",
        "org_id": "V7Smkkb6JpYG1YAaKfrtVw==",
       "zvalue": "4"
   }

,

    {
       "title": "Sirmaur",
       "lat": "30.500973",
       "lng": "77.472029",
        "description": "kvk.sirmaur@icar.gov.in",
        "urlsource": "<a href=http://www.hillagric.ac.in/extension/dee-extra/KrishiVigyanKendras/kvk_dhaulakuan/index.htm target=_blank>Sirmaur</a>",
        "org_id": "V7Smkkb6JpbsJQ//0ouE5Q==",
       "zvalue": "4"
   }

,

    {
       "title": "Solan",
       "lat": "30.955598",
       "lng": "77.113139",
        "description": "kvk.solan@icar.gov.in",
        "urlsource": "<a href=https://www.yspuniversity.ac.in/kvk-kandaghat target=_blank>Solan</a>",
        "org_id": "IFgM4adWwtaLwQ0k0YhINA==",
       "zvalue": "4"
   }

,

    {
       "title": "Una",
       "lat": "31.445953",
       "lng": "76.274826",
        "description": "kvk.una@icar.gov.in",
        "urlsource": "<a href=http://www.hillagric.ac.in/extension/dee-extra/KrishiVigyanKendras/kvk_una/index.htm target=_blank>Una</a>",
        "org_id": "IFgM4adWwtbEoWPSU/3BzQ==",
       "zvalue": "4"
   }

,

    {
       "title": "Anantnag",
       "lat": "33.605603",
       "lng": "75.187004",
        "description": "kvk.anantnag@icar.gov.in",
        "urlsource": "<a href=http://www.kvkanantnag.net target=_blank>Anantnag</a>",
        "org_id": "IFgM4adWwtbD04DS36nqrg==",
       "zvalue": "4"
   }

,

    {
       "title": "Baramulla",
       "lat": "34.064231",
       "lng": "74.538651",
        "description": "kvk.baramulla@icar.gov.in",
        "urlsource": "<a href=http://kvkbaramulla.org.in/ target=_blank>Baramulla</a>",
        "org_id": "IFgM4adWwtbGn83Ry8k4Hw==",
       "zvalue": "4"
   }

,

    {
       "title": "Bandipore",
       "lat": "34.393123",
       "lng": "74.827318",
        "description": "kvk.bandipore@icar.gov.in",
        "urlsource": "<a href=http://www.kvkbandipora.in target=_blank>Bandipore</a>",
        "org_id": "IFgM4adWwtZuGmVFYKptyQ==",
       "zvalue": "4"
   }

,

    {
       "title": "Budgam",
       "lat": "34.01893",
       "lng": "74.798451",
        "description": "kvk.Budgam@icar.gov.in",
        "urlsource": "<a href=http://kvkbudgam.org target=_blank>Budgam</a>",
        "org_id": "IFgM4adWwtaFCVq6nryIJA==",
       "zvalue": "4"
   }

,

    {
       "title": "Leh 2 (Ladakh)",
       "lat": "33.206439",
       "lng": "78.649557",
        "description": "kvk.leh2@icar.gov.in",
        "urlsource": "Leh 2 (Ladakh)",
        "org_id": "IFgM4adWwtbEhVv9oYs6EQ==",
       "zvalue": "4"
   }

,

    {
       "title": "Doda",
       "lat": "32.981285",
       "lng": "75.709759",
        "description": "kvk.doda@icar.gov.in",
        "urlsource": "<a href=http://kvkdoda.nic.in/index.html target=_blank>Doda</a>",
        "org_id": "IFgM4adWwtYeE00ftrX3iA==",
       "zvalue": "4"
   }

,

    {
       "title": "Ganderbal",
       "lat": "34.225817",
       "lng": "74.775583",
        "description": "kvk.ganderbal@icar.gov.in",
        "urlsource": "<a href=http://www.kvkganderbal.org target=_blank>Ganderbal</a>",
        "org_id": "IFgM4adWwtZJcdzT1d6Q1Q==",
       "zvalue": "4"
   }

,

    {
       "title": "Jammu",
       "lat": "32.604899",
       "lng": "74.731531",
        "description": "kvk.jammu@icar.gov.in",
        "urlsource": "<a href=http://www.kvkjammu.org target=_blank>Jammu</a>",
        "org_id": "IFgM4adWwtbKq6z9FEKUEA==",
       "zvalue": "4"
   }

,

    {
       "title": "Kargil 1",
       "lat": "34.565689",
       "lng": "76.115287",
        "description": "kvk.kargil@icar.gov.in",
        "urlsource": "Kargil 1",
        "org_id": "IMrPtt2F+IcDdT986PG5fA==",
       "zvalue": "4"
   }

,

    {
       "title": "Kathua",
       "lat": "32.397785",
       "lng": "75.510928",
        "description": "kvk.kathua@icar.gov.in",
        "urlsource": "<a href=https://kvkkathua.ac.in/ target=_blank>Kathua</a>",
        "org_id": "IMrPtt2F+IeIAIM5Gy+cdg==",
       "zvalue": "4"
   }

,

    {
       "title": "Kulgam",
       "lat": "33.644744",
       "lng": "74.943893",
        "description": "kvk.kulgam@icar.gov.in",
        "urlsource": "Kulgam",
        "org_id": "IMrPtt2F+Ic+u71lPsrJyA==",
       "zvalue": "4"
   }

,

    {
       "title": "Kupwara",
       "lat": "34.351166",
       "lng": "74.399156",
        "description": "kvk.Kupwara@icar.gov.in",
        "urlsource": "<a href=http://kvkkupwara.com target=_blank>Kupwara</a>",
        "org_id": "IMrPtt2F+Ie3lgSZ0ccMBA==",
       "zvalue": "4"
   }

,

    {
       "title": "Leh 1 (Ladakh)",
       "lat": "34.145853",
       "lng": "77.583735",
        "description": "kvk.leh1@icar.gov.in",
        "urlsource": "<a href=http://www.kvkleh.com target=_blank>Leh 1 (Ladakh)</a>",
        "org_id": "IMrPtt2F+IeSEc2ee84U9A==",
       "zvalue": "4"
   }

,

    {
       "title": "Poonch",
       "lat": "33.766988",
       "lng": "74.092468",
        "description": "kvk.poonch@icar.gov.in",
        "urlsource": "<a href=http://www.kvkpoonch.nic.in/ target=_blank>Poonch</a>",
        "org_id": "IMrPtt2F+Idtjp6lKOLcsQ==",
       "zvalue": "4"
   }

,

    {
       "title": "Pulwama",
       "lat": "33.891804",
       "lng": "74.981108",
        "description": "kvk.pulwama@icar.gov.in",
        "urlsource": "Pulwama",
        "org_id": "IMrPtt2F+IcC7pfMImvKSQ==",
       "zvalue": "4"
   }

,

    {
       "title": "Rajouri",
       "lat": "33.353381",
       "lng": "74.297061",
        "description": "kvk.rajouri@icar.gov.in",
        "urlsource": "<a href=http://www.kvkrajouri.nic.in target=_blank>Rajouri</a>",
        "org_id": "IMrPtt2F+IdTu3eQ0gVKuw==",
       "zvalue": "4"
   }

,

    {
       "title": "Reasi",
       "lat": "33.100219",
       "lng": "74.799525",
        "description": "kvk.udhampur@icar.gov.in",
        "urlsource": "Reasi",
        "org_id": "IMrPtt2F+IfKGjypRyDPqQ==",
       "zvalue": "4"
   }

,

    {
       "title": "Srinagar",
       "lat": "34.018903",
       "lng": "74.798453",
        "description": "kvk.srinagar@icar.gov.in",
        "urlsource": "<a href=http://www.kvksrinagar.org/ target=_blank>Srinagar</a>",
        "org_id": "IMrPtt2F+IdZZH+E/Pci1A==",
       "zvalue": "4"
   }

,

    {
       "title": "Shopian",
       "lat": "33.75418",
       "lng": "74.842121",
        "description": "kvk.shopian@icar.gov.in",
        "urlsource": "<a href=http://www.kvkshopian.net/ target=_blank>Shopian</a>",
        "org_id": "4ucFAKppeCc2T8pMckoAJA==",
       "zvalue": "4"
   }

,

    {
       "title": "Amritsar ",
       "lat": "31.707344",
       "lng": "74.93927",
        "description": "kvk.amritsar@icar.gov.in",
        "urlsource": "<a href=http://www.kvkamritsar.in target=_blank>Amritsar </a>",
        "org_id": "4ucFAKppeCewFMH5HddeBQ==",
       "zvalue": "4"
   }

,

    {
       "title": "Bathinda",
       "lat": "30.179149",
       "lng": "74.933573",
        "description": "kvk.bathinda@icar.gov.in",
        "urlsource": "<a href=http://www.kvkbathinda.com/ target=_blank>Bathinda</a>",
        "org_id": "4ucFAKppeCe47tdOWtsLow==",
       "zvalue": "4"
   }

,

    {
       "title": "Barnala",
       "lat": "30.317326",
       "lng": "75.491166",
        "description": "kvk.barnala@icar.gov.in",
        "urlsource": "<a href=http://www.kvkbarnala.org target=_blank>Barnala</a>",
        "org_id": "4ucFAKppeCdOWc/kZiTSdg==",
       "zvalue": "4"
   }

,

    {
       "title": "Faridkot",
       "lat": "30.678187",
       "lng": "74.739559",
        "description": "kvk.faridkot@icar.gov.in",
        "urlsource": "<a href=http://www.kvkfaridkot.com target=_blank>Faridkot</a>",
        "org_id": "4ucFAKppeCcovuOfDLU/cg==",
       "zvalue": "4"
   }

,

    {
       "title": "Fatehgarh Sahib",
       "lat": "30.622831",
       "lng": "76.405903",
        "description": "kvk.fatehgarh@icar.gov.in",
        "urlsource": "<a href=http://www.kvkfatehgarhsahib.co.in/ target=_blank>Fatehgarh Sahib</a>",
        "org_id": "4ucFAKppeCcGlZfEWPyTrg==",
       "zvalue": "4"
   }

,

    {
       "title": "Ferozepur",
       "lat": "30.910411",
       "lng": "74.66332",
        "description": "kvk.ferozepur@icar.gov.in",
        "urlsource": "<a href=http://www.kvkferozepur.com target=_blank>Ferozepur</a>",
        "org_id": "4ucFAKppeCdlA7c++1zJEQ==",
       "zvalue": "4"
   }

,

    {
       "title": "Gurdaspur",
       "lat": "32.049334",
       "lng": "75.422602",
        "description": "kvk.gurdaspur@icar.gov.in",
        "urlsource": "<a href=http://www.kvkgurdaspur.com target=_blank>Gurdaspur</a>",
        "org_id": "4ucFAKppeCfhEpoSTguR/g==",
       "zvalue": "4"
   }

,

    {
       "title": "Hoshiarpur",
       "lat": "31.387975",
       "lng": "76.024322",
        "description": "kvk.hoshiarpur@icar.gov.in",
        "urlsource": "<a href=http://www.kvkhoshiarpur.com/ target=_blank>Hoshiarpur</a>",
        "org_id": "4ucFAKppeCcoODmjpZITvw==",
       "zvalue": "4"
   }

,

    {
       "title": "Jalandhar",
       "lat": "31.095207",
       "lng": "75.582645",
        "description": "kvk.jalandhar@icar.gov.in",
        "urlsource": "<a href=http://www.kvkjalandhar.co.in target=_blank>Jalandhar</a>",
        "org_id": "4ucFAKppeCeoCK04BMuFfQ==",
       "zvalue": "4"
   }

,

    {
       "title": "Kapurthala ",
       "lat": "31.362275",
       "lng": "75.364516",
        "description": "kvk.kapurthala@icar.gov.in",
        "urlsource": "<a href=http://www.kvkkapurthala.com target=_blank>Kapurthala </a>",
        "org_id": "GGnWH0BZaAt4PLNtanryYg==",
       "zvalue": "4"
   }

,

    {
       "title": "Ludhiana",
       "lat": "30.92277",
       "lng": "75.348358",
        "description": "kvk.ludhiana@icar.gov.in",
        "urlsource": "<a href=http://kvkludhiana.com target=_blank>Ludhiana</a>",
        "org_id": "GGnWH0BZaAvkFBCInKrrWw==",
       "zvalue": "4"
   }

,

    {
       "title": "Mansa",
       "lat": "30.004147",
       "lng": "75.342232",
        "description": "kvk.mansa@icar.gov.in",
        "urlsource": "Mansa",
        "org_id": "GGnWH0BZaAvXym+gfgxdDw==",
       "zvalue": "4"
   }

,

    {
       "title": "Moga",
       "lat": "30.65565",
       "lng": "75.108029",
        "description": "kvk.moga@icar.gov.in",
        "urlsource": "<a href=http://www.kvkmoga.com target=_blank>Moga</a>",
        "org_id": "GGnWH0BZaAvMTNK0u1lytA==",
       "zvalue": "4"
   }

,

    {
       "title": "Sahibzada Ajit Singh Nagar",
       "lat": "30.673254",
       "lng": "76.689436",
        "description": "kvk.sasnagar@icar.gov.in",
        "urlsource": "<a href=http://www.kvkmohali.org target=_blank>Sahibzada Ajit Singh Nagar</a>",
        "org_id": "GGnWH0BZaAs2BV4mQRhRUw==",
       "zvalue": "4"
   }

,

    {
       "title": "Muktsar",
       "lat": "30.446098",
       "lng": "74.508022",
        "description": "kvk.muktsar@icar.gov.in",
        "urlsource": "<a href=http://www.kvkmuktsar.com target=_blank>Muktsar</a>",
        "org_id": "GGnWH0BZaAvpU448sw1xVg==",
       "zvalue": "4"
   }

,

    {
       "title": "Shahid Bhagat Singh Nagar ",
       "lat": "31.108139",
       "lng": "76.173363",
        "description": "kvk.sbsnagar@icar.gov.in",
        "urlsource": "<a href=http://www.kvknawanshahr.com target=_blank>Shahid Bhagat Singh Nagar </a>",
        "org_id": "GGnWH0BZaAtzZkrwxBinDQ==",
       "zvalue": "4"
   }

,

    {
       "title": "Patiala",
       "lat": "30.349056",
       "lng": "76.319543",
        "description": "kvk.patiala@icar.gov.in",
        "urlsource": "Patiala",
        "org_id": "GGnWH0BZaAs9xKHRFkVAVw==",
       "zvalue": "4"
   }

,

    {
       "title": "Rupnagar",
       "lat": "30.97913",
       "lng": "76.51975",
        "description": "kvk.rupnagar@icar.gov.in",
        "urlsource": "<a href=http://www.kvkropar.com target=_blank>Rupnagar</a>",
        "org_id": "GGnWH0BZaAtAgmzRfCwYsQ==",
       "zvalue": "4"
   }

,

    {
       "title": "Sangrur",
       "lat": "30.18646",
       "lng": "75.878749",
        "description": "kvk.sangrur@icar.gov.in",
        "urlsource": "<a href=http://kvksangrur.com target=_blank>Sangrur</a>",
        "org_id": "GGnWH0BZaAtksrk6dDzPBA==",
       "zvalue": "4"
   }

,

    {
       "title": "Tarn Taran",
       "lat": "31.179574",
       "lng": "74.903339",
        "description": "kvk.tarntaran@icar.gov.in",
        "urlsource": "<a href=http://www.kvktarntaran.org/ target=_blank>Tarn Taran</a>",
        "org_id": "W7KbnXVDaT1WCXasuI9FDg==",
       "zvalue": "4"
   }

,

    {
       "title": "North & Middle Andaman",
       "lat": "12.722735",
       "lng": "92.883654",
        "description": "kvk.andaman2@icar.gov.in",
        "urlsource": "<a href=https://ciari.icar.gov.in/KVK_NM.html target=_blank>North & Middle Andaman</a>",
        "org_id": "W7KbnXVDaT1bRoL8S3dOWw==",
       "zvalue": "4"
   }

,

    {
       "title": "Nicobar",
       "lat": "6.853295",
       "lng": "93.878517",
        "description": "kvk.nicobar@icar.gov.in",
        "urlsource": "Nicobar",
        "org_id": "W7KbnXVDaT0eKA1m/sq/Mw==",
       "zvalue": "4"
   }

,

    {
       "title": "Chhindwara 2",
       "lat": "20.8725",
       "lng": "79.173889",
        "description": "",
        "urlsource": "Chhindwara 2",
        "org_id": "Kh+VlZ18rrtSRD1yt+qqlw==",
       "zvalue": "4"
   }

,

    {
       "title": "South Andaman",
       "lat": "11.606019",
       "lng": "92.705843",
        "description": "kvk.andaman1@icar.gov.in",
        "urlsource": "<a href=https://ciari.icar.gov.in/ target=_blank>South Andaman</a>",
        "org_id": "W7KbnXVDaT1UydD2Krshdg==",
       "zvalue": "4"
   }

,

    {
       "title": "Gaya 1",
       "lat": "24.799078",
       "lng": "85.039698",
        "description": "kvk.gaya@icar.gov.in",
        "urlsource": "<a href=http://www.gayakvk.org target=_blank>Gaya 1</a>",
        "org_id": "W7KbnXVDaT254OmLioL6mQ==",
       "zvalue": "4"
   }

,

    {
       "title": "Sheohar",
       "lat": "26.514069",
       "lng": "85.297161",
        "description": "kvk.sheohar@icar.gov.in",
        "urlsource": "Sheohar",
        "org_id": "W7KbnXVDaT38tK4rbRqkJQ==",
       "zvalue": "4"
   }

,

    {
       "title": "Lakhisarai",
       "lat": "25.026005",
       "lng": "86.041926",
        "description": "kvk.lakhisarai@icar.gov.in",
        "urlsource": "<a href=https://lakhisarai.kvk4.in/ target=_blank>Lakhisarai</a>",
        "org_id": "W7KbnXVDaT3ZvsudnMDbSg==",
       "zvalue": "4"
   }

,

    {
       "title": "East Champaran 1",
       "lat": "26.547483",
       "lng": "84.937161",
        "description": "kvk.echamparan@icar.gov.in",
        "urlsource": "<a href=http://eastchamparan.kvk4.in target=_blank>East Champaran 1</a>",
        "org_id": "W7KbnXVDaT0coHrjceMNvQ==",
       "zvalue": "4"
   }

,

    {
       "title": "Gopalganj",
       "lat": "26.582276",
       "lng": "84.403488",
        "description": "kvk.gopalganj@icar.gov.in",
        "urlsource": "Gopalganj",
        "org_id": "W7KbnXVDaT2o3gjkutv5uQ==",
       "zvalue": "4"
   }

,

    {
       "title": "Bhagalpur",
       "lat": "25.236356",
       "lng": "87.045622",
        "description": "kvk.bhagalpur@icar.gov.in",
        "urlsource": "<a href=https://bhagalpur.kvk4.in target=_blank>Bhagalpur</a>",
        "org_id": "W7KbnXVDaT0zLl49T4nPbQ==",
       "zvalue": "4"
   }

,

    {
       "title": "Rohtas",
       "lat": "25.224032",
       "lng": "84.266582",
        "description": "kvk.rohtas@icar.gov.in",
        "urlsource": "<a href=http://www.rohtas.kvk4.in target=_blank>Rohtas</a>",
        "org_id": "Fa7F8GooVjY+t0c1xl8lkA==",
       "zvalue": "4"
   }

,

    {
       "title": "Araria",
       "lat": "26.118401",
       "lng": "87.449288",
        "description": "kvk.araria@icar.gov.in",
        "urlsource": "<a href=http://www.arariakvk.org target=_blank>Araria</a>",
        "org_id": "Fa7F8GooVjafBG29AFBzEA==",
       "zvalue": "4"
   }

,

    {
       "title": "Purnea",
       "lat": "25.944337",
       "lng": "87.534826",
        "description": "kvk.purnea@icar.gov.in",
        "urlsource": "<a href=https://purnea.kvk4.in/index.php target=_blank>Purnea</a>",
        "org_id": "Fa7F8GooVjaJUQ1lBK61Xw==",
       "zvalue": "4"
   }

,

    {
       "title": "Katihar",
       "lat": "25.528199",
       "lng": "87.576608",
        "description": "kvk.katihar@icar.gov.in",
        "urlsource": "<a href=http://katihar.kvk4.in  target=_blank>Katihar</a>",
        "org_id": "Fa7F8GooVjYJ6sN1TaqNdg==",
       "zvalue": "4"
   }

,

    {
       "title": "Samastipur 1",
       "lat": "25.943155",
       "lng": "85.691919",
        "description": "kvk.samastipur@icar.gov.in",
        "urlsource": "<a href=http://www.samastipurkvk.in target=_blank>Samastipur 1</a>",
        "org_id": "Fa7F8GooVjZaKj3ruWX/mA==",
       "zvalue": "4"
   }

,

    {
       "title": "Siwan",
       "lat": "26.084817",
       "lng": "84.682096",
        "description": "kvk.siwan@icar.gov.in",
        "urlsource": "<a href=http://siwan.kvk4.in/ target=_blank>Siwan</a>",
        "org_id": "Fa7F8GooVjacuHzKiYNJeA==",
       "zvalue": "4"
   }

,

    {
       "title": "West Champaran 1",
       "lat": "26.752419",
       "lng": "84.694381",
        "description": "kvk.wchamparan@icar.gov.in",
        "urlsource": "<a href=http://westchamparankvk.in/ target=_blank>West Champaran 1</a>",
        "org_id": "Fa7F8GooVjbjEwHVDwcNvw==",
       "zvalue": "4"
   }

,

    {
       "title": "Khagaria",
       "lat": "25.508141",
       "lng": "86.484588",
        "description": "kvk.khagaria@icar.gov.in",
        "urlsource": "Khagaria",
        "org_id": "Fa7F8GooVjaZoMrAc/tV0A==",
       "zvalue": "4"
   }

,

    {
       "title": "Madhepura",
       "lat": "25.929036",
       "lng": "86.793475",
        "description": "kvk.madhepura@icar.gov.in",
        "urlsource": "<a href=http://www.madhepura.kvk4.in target=_blank>Madhepura</a>",
        "org_id": "Fa7F8GooVjbrLlMK/W2/8w==",
       "zvalue": "4"
   }

,

    {
       "title": "Muzaffarpur",
       "lat": "26.155053",
       "lng": "85.046704",
        "description": "",
        "urlsource": "<a href=https://saraiya.kvk4.in/# target=_blank>Muzaffarpur</a>",
        "org_id": "Fa7F8GooVjZMPfWptFjnuw==",
       "zvalue": "4"
   }

,

    {
       "title": "Darbhanga",
       "lat": "26.38615",
       "lng": "85.728408",
        "description": "kvk.darbhanga@icar.gov.in",
        "urlsource": "<a href=http://darbhanga.kvk4.in/ target=_blank>Darbhanga</a>",
        "org_id": "VmR0wzS41MVoWtW0gDcSBQ==",
       "zvalue": "4"
   }

,

    {
       "title": "Vaishali",
       "lat": "25.731297",
       "lng": "85.250282",
        "description": "kvk.vaishali@icar.gov.in",
        "urlsource": "<a href=https://vaishali.kvk4.in/ target=_blank>Vaishali</a>",
        "org_id": "VmR0wzS41MXaDETwx6X7PA==",
       "zvalue": "4"
   }

,

    {
       "title": "Sheikhpura",
       "lat": "25.044465",
       "lng": "85.855098",
        "description": "kvk.sheikhpura@icar.gov.in",
        "urlsource": "<a href=http://sheikhpurakvk.org/ target=_blank>Sheikhpura</a>",
        "org_id": "VmR0wzS41MXXq0LjFgiZdw==",
       "zvalue": "4"
   }

,

    {
       "title": "Madhubani 1",
       "lat": "26.407152",
       "lng": "85.834467",
        "description": "kvk.madhubani@icar.gov.in",
        "urlsource": "<a href=http://kvkchanpura.org/ target=_blank>Madhubani 1</a>",
        "org_id": "VmR0wzS41MW7fvyy6HTupg==",
       "zvalue": "4"
   }

,

    {
       "title": "Bhojpur",
       "lat": "25.552509",
       "lng": "84.652817",
        "description": "kvk.bhojpur@icar.gov.in",
        "urlsource": "Bhojpur",
        "org_id": "VmR0wzS41MUXXbi6d8+6UA==",
       "zvalue": "4"
   }

,

    {
       "title": "Begusarai",
       "lat": "25.662194",
       "lng": "86.027234",
        "description": "kvk.begusarai@icar.gov.in",
        "urlsource": "<a href=http://begusarai.kvk4.in target=_blank>Begusarai</a>",
        "org_id": "VmR0wzS41MXT00vMzfCZTQ==",
       "zvalue": "4"
   }

,

    {
       "title": "Nalanda",
       "lat": "25.367209",
       "lng": "85.534539",
        "description": "kvk.nalanda@icar.gov.in",
        "urlsource": "<a href=http://www.nalandakvk.org target=_blank>Nalanda</a>",
        "org_id": "VmR0wzS41MXl6ExJ1rU5hQ==",
       "zvalue": "4"
   }

,

    {
       "title": "Patna",
       "lat": "25.454086",
       "lng": "85.720686",
        "description": "kvk.patna@icar.gov.in",
        "urlsource": "<a href=http://www.patna.kvk4.in target=_blank>Patna</a>",
        "org_id": "VmR0wzS41MXHCwP7NgLm9g==",
       "zvalue": "4"
   }

,

    {
       "title": "Kaimur (Bhabua)",
       "lat": "24.68746",
       "lng": "83.605392",
        "description": "kvk.kaimur@icar.gov.in",
        "urlsource": "Kaimur (Bhabua)",
        "org_id": "VmR0wzS41MV/N8t56QhouA==",
       "zvalue": "4"
   }

,

    {
       "title": "Banka",
       "lat": "24.864797",
       "lng": "86.915815",
        "description": "kvk.banka@icar.gov.in",
        "urlsource": "<a href=http://www.bankakvk.org target=_blank>Banka</a>",
        "org_id": "VmR0wzS41MUl89WfHOPR2Q==",
       "zvalue": "4"
   }

,

    {
       "title": "Munger",
       "lat": "25.378927",
       "lng": "86.473257",
        "description": "kvk.munger@icar.gov.in",
        "urlsource": "<a href=http://www.mungerkvk.org target=_blank>Munger</a>",
        "org_id": "1ZZm7JJDBxqCrFIvTj47Eg==",
       "zvalue": "4"
   }

,

    {
       "title": "Saharsa",
       "lat": "25.454086",
       "lng": "86.570086",
        "description": "kvk.saharsa@icar.gov.in",
        "urlsource": "<a href=http://saharsa.kvk4.in target=_blank>Saharsa</a>",
        "org_id": "1ZZm7JJDBxpmcwgy/5lorw==",
       "zvalue": "4"
   }

,

    {
       "title": "Nawada",
       "lat": "24.876904",
       "lng": "85.856728",
        "description": "kvk.nawada@icar.gov.in",
        "urlsource": "<a href=http://www.kvknawada.org/ target=_blank>Nawada</a>",
        "org_id": "1ZZm7JJDBxqC1n4GT37tGg==",
       "zvalue": "4"
   }

,

    {
       "title": "Arwal",
       "lat": "25.142229",
       "lng": "84.50457",
        "description": "kvk.arwal@icar.gov.in",
        "urlsource": "<a href=http://www.arwal.kvk4.in target=_blank>Arwal</a>",
        "org_id": "1ZZm7JJDBxoTxcm8CT82mg==",
       "zvalue": "4"
   }

,

    {
       "title": "Buxar",
       "lat": "25.545289",
       "lng": "83.996904",
        "description": "kvk.buxar@icar.gov.in",
        "urlsource": "<a href=https://icarrcer.in/kvkbuxar/ target=_blank>Buxar</a>",
        "org_id": "1ZZm7JJDBxpJa9i+Tw3E/g==",
       "zvalue": "4"
   }

,

    {
       "title": "Sitamarhi",
       "lat": "26.543437",
       "lng": "85.716697",
        "description": "kvk.sitamarhi@icar.gov.in",
        "urlsource": "<a href=http://www.samtasevakendra.com target=_blank>Sitamarhi</a>",
        "org_id": "1ZZm7JJDBxo6iWZx8cRVPw==",
       "zvalue": "4"
   }

,

    {
       "title": "Saran",
       "lat": "25.839949",
       "lng": "84.578863",
        "description": "kvk.saran@icar.gov.in",
        "urlsource": "Saran",
        "org_id": "1ZZm7JJDBxpM0dS/y//Raw==",
       "zvalue": "4"
   }

,

    {
       "title": "Supaul",
       "lat": "26.303849",
       "lng": "86.838514",
        "description": "kvk.supaul@icar.gov.in",
        "urlsource": "<a href=http://supaul.kvk4.in target=_blank>Supaul</a>",
        "org_id": "1ZZm7JJDBxp5dWOWv8CiCw==",
       "zvalue": "4"
   }

,

    {
       "title": "Aurangabad BR",
       "lat": "24.833264",
       "lng": "84.287009",
        "description": "kvk.aurangabadbr@icar.gov.in",
        "urlsource": "<a href=http://aurangabad.kvk4.in target=_blank>Aurangabad BR</a>",
        "org_id": "1ZZm7JJDBxoF9LWd3DlX6Q==",
       "zvalue": "4"
   }

,

    {
       "title": "Kishanganj",
       "lat": "26.079725",
       "lng": "87.932093",
        "description": "kvk.kishanganj@icar.gov.in",
        "urlsource": "<a href=https://kishanganj.kvk4.in/ target=_blank>Kishanganj</a>",
        "org_id": "1ZZm7JJDBxoYOsoLfGsCrw==",
       "zvalue": "4"
   }

,

    {
       "title": "Jehanabad ",
       "lat": "25.198568",
       "lng": "85.131994",
        "description": "kvk.jehanabad@icar.gov.in",
        "urlsource": "<a href=https://jehanabad.kvk4.in/ target=_blank>Jehanabad </a>",
        "org_id": "Kwwd162kuRudTWcEN9kTeg==",
       "zvalue": "4"
   }

,

    {
       "title": "Jamui",
       "lat": "25.000637",
       "lng": "86.294287",
        "description": "kvk.jamui@icar.gov.in",
        "urlsource": "Jamui",
        "org_id": "Kwwd162kuRtgI/qE03ENhA==",
       "zvalue": "4"
   }

,

    {
       "title": "Simdega",
       "lat": "22.650982",
       "lng": "84.921825",
        "description": "kvk.simdega@icar.gov.in",
        "urlsource": "Simdega",
        "org_id": "Kwwd162kuRvrSQaQxxS3fA==",
       "zvalue": "4"
   }

,

    {
       "title": "Saraikela-Kharsawan",
       "lat": "22.813262",
       "lng": "86.107018",
        "description": "kvk.saraikela@icar.gov.in",
        "urlsource": "Saraikela-Kharsawan",
        "org_id": "Kwwd162kuRsV9dnCiPaQgA==",
       "zvalue": "4"
   }

,

    {
       "title": "Latehar",
       "lat": "23.832261",
       "lng": "84.783618",
        "description": "kvk.latehar@icar.gov.in",
        "urlsource": "Latehar",
        "org_id": "Kwwd162kuRsAnPzPUZZoTg==",
       "zvalue": "4"
   }

,

    {
       "title": "Jamtara",
       "lat": "23.984603",
       "lng": "86.769444",
        "description": "kvk.jamtara@icar.gov.in",
        "urlsource": "Jamtara",
        "org_id": "Kwwd162kuRukJgHRel2+sw==",
       "zvalue": "4"
   }

,

    {
       "title": "Koderma",
       "lat": "24.370962",
       "lng": "85.646046",
        "description": "kvk.koderma@icar.gov.in",
        "urlsource": "<a href=https://koderma.kvk4.in target=_blank>Koderma</a>",
        "org_id": "Kwwd162kuRtLruIN0BEcKw==",
       "zvalue": "4"
   }

,

    {
       "title": "Dumka",
       "lat": "24.250298",
       "lng": "87.244074",
        "description": "kvk.dumka@icar.gov.in",
        "urlsource": "Dumka",
        "org_id": "Kwwd162kuRuC4f1L5YR8zg==",
       "zvalue": "4"
   }

,

    {
       "title": "Pakur",
       "lat": "24.482145",
       "lng": "87.759084",
        "description": "kvk.pakur@icar.gov.in",
        "urlsource": "Pakur",
        "org_id": "Kwwd162kuRvXkkd2nSnQHQ==",
       "zvalue": "4"
   }

,

    {
       "title": "Lohardaga",
       "lat": "23.515471",
       "lng": "84.665682",
        "description": "kvk.lohardaga@icar.gov.in",
        "urlsource": "Lohardaga",
        "org_id": "Kwwd162kuRvlK0N5rB8bBA==",
       "zvalue": "4"
   }

,

    {
       "title": "Giridih",
       "lat": "24.3001",
       "lng": "86.360583",
        "description": "kvk.giridih@icar.gov.in",
        "urlsource": "Giridih",
        "org_id": "9HBBte5rWB4bBeMNTsvTNA==",
       "zvalue": "4"
   }

,

    {
       "title": "Bokaro",
       "lat": "23.621389",
       "lng": "85.858333",
        "description": "kvk.bokaro@icar.gov.in",
        "urlsource": "Bokaro",
        "org_id": "9HBBte5rWB6EhAIj4VDXjA==",
       "zvalue": "4"
   }

,

    {
       "title": "Sahibganj",
       "lat": "25.235898",
       "lng": "87.661624",
        "description": "kvk.sahibganj@icar.gov.in",
        "urlsource": "Sahibganj",
        "org_id": "9HBBte5rWB7voTtC/0R6GQ==",
       "zvalue": "4"
   }

,

    {
       "title": "Garhwa ",
       "lat": "24.155682",
       "lng": "83.788787",
        "description": "kvk.garhwa@icar.gov.in",
        "urlsource": "<a href=http://www.garhwa.kvk4.in target=_blank>Garhwa </a>",
        "org_id": "9HBBte5rWB758MbTe0Z+Ww==",
       "zvalue": "4"
   }

,

    {
       "title": "Palamu",
       "lat": "24.013546",
       "lng": "84.104933",
        "description": "kvk.palamu@icar.gov.in",
        "urlsource": "Palamu",
        "org_id": "9HBBte5rWB5hxORT3FVHDA==",
       "zvalue": "4"
   }

,

    {
       "title": "West Singhbhum",
       "lat": "22.219704",
       "lng": "85.639672",
        "description": "kvk.wsinghbhum@icar.gov.in",
        "urlsource": "West Singhbhum",
        "org_id": "9HBBte5rWB4BEHijBlKddw==",
       "zvalue": "4"
   }

,

    {
       "title": "Khunti",
       "lat": "23.07",
       "lng": "85.28",
        "description": "kvk.khunti@icar.gov.in",
        "urlsource": "<a href=https://khunti.kvk4.in/ target=_blank>Khunti</a>",
        "org_id": "9HBBte5rWB7ukDeyjL5jcg==",
       "zvalue": "4"
   }

,

    {
       "title": "Ramgarh",
       "lat": "23.802322",
       "lng": "85.470747",
        "description": "kvk.ramgarh@icar.gov.in",
        "urlsource": "Ramgarh",
        "org_id": "9HBBte5rWB6PBEkwvAnEJg==",
       "zvalue": "4"
   }

,

    {
       "title": "Godda",
       "lat": "24.84085",
       "lng": "87.211531",
        "description": "kvk.godda@icar.gov.in",
        "urlsource": "<a href=http://www.gvtindia.org/kvk target=_blank>Godda</a>",
        "org_id": "9HBBte5rWB5r52AP4PxOxQ==",
       "zvalue": "4"
   }

,

    {
       "title": "East Singhbhum",
       "lat": "22.693338",
       "lng": "86.393598",
        "description": "kvk.esinghbhum@icar.gov.in",
        "urlsource": "<a href=http://www.kvkeastsinghbhum.com/ target=_blank>East Singhbhum</a>",
        "org_id": "9HBBte5rWB5H3g92ucT7hg==",
       "zvalue": "4"
   }

,

    {
       "title": "Chatra",
       "lat": "24.203137",
       "lng": "84.924932",
        "description": "kvk.chatra@icar.gov.in",
        "urlsource": "<a href=https://chatra.kvk4.in/ target=_blank>Chatra</a>",
        "org_id": "BeGDYO3RaYjWwZYElopDyw==",
       "zvalue": "4"
   }

,

    {
       "title": "Gumla",
       "lat": "23.197518",
       "lng": "84.20364",
        "description": "kvk.gumla@icar.gov.in",
        "urlsource": "<a href=https://gumla.kvk4.in target=_blank>Gumla</a>",
        "org_id": "BeGDYO3RaYhwbyike3Cu4g==",
       "zvalue": "4"
   }

,

    {
       "title": "Dhanbad",
       "lat": "23.708323",
       "lng": "86.526267",
        "description": "kvk.dhanbad@icar.gov.in",
        "urlsource": "<a href=http://www.kvkdhanbad.org target=_blank>Dhanbad</a>",
        "org_id": "BeGDYO3RaYiQPWICECHQnQ==",
       "zvalue": "4"
   }

,

    {
       "title": "Deoghar",
       "lat": "24.485069",
       "lng": "86.622365",
        "description": "kvk.deoghar@icar.gov.in",
        "urlsource": "<a href=http://kvkdeoghar.gov.in target=_blank>Deoghar</a>",
        "org_id": "BeGDYO3RaYiXx5fDtajWuw==",
       "zvalue": "4"
   }

,

    {
       "title": "Hazaribagh",
       "lat": "24.01202",
       "lng": "85.387051",
        "description": "kvk.hazaribagh@icar.gov.in",
        "urlsource": "<a href=https://hazaribag.kvk4.in/ target=_blank>Hazaribagh</a>",
        "org_id": "BeGDYO3RaYjos828SQgvQQ==",
       "zvalue": "4"
   }

,

    {
       "title": "Ranchi",
       "lat": "23.399479",
       "lng": "85.338077",
        "description": "kvk.ranchi@icar.gov.in",
        "urlsource": "<a href=http://rkmranchi.org target=_blank>Ranchi</a>",
        "org_id": "BeGDYO3RaYjBCN+lda+8Nw==",
       "zvalue": "4"
   }

,

    {
       "title": "Murshidabad 1",
       "lat": "23.433",
       "lng": "88.4917",
        "description": "kvk.murshidabad@icar.gov.in",
        "urlsource": "Murshidabad 1",
        "org_id": "BeGDYO3RaYh2XGC9BhRPGA==",
       "zvalue": "4"
   }

,

    {
       "title": "North 24 Parganas 1",
       "lat": "22.834158",
       "lng": "88.632171",
        "description": "kvk.n24parganas@icar.gov.in",
        "urlsource": "North 24 Parganas 1",
        "org_id": "BeGDYO3RaYj67vbjU+/r/w==",
       "zvalue": "4"
   }

,

    {
       "title": "Bardhaman ",
       "lat": "22.759769",
       "lng": "88.426852",
        "description": "kvk.bardhaman @icar.gov.in",
        "urlsource": "<a href=http://www.kvkcrijaf.org.in target=_blank>Bardhaman </a>",
        "org_id": "BeGDYO3RaYj+bJs/LaXc+A==",
       "zvalue": "4"
   }

,

    {
       "title": "Bankura ",
       "lat": "23.290521",
       "lng": "87.402462",
        "description": "kvk.bankura@icar.gov.in",
        "urlsource": "<a href=https://kvksonamukhi.org.in/ target=_blank>Bankura </a>",
        "org_id": "BeGDYO3RaYh+ZSkkYy9rNA==",
       "zvalue": "4"
   }

,

    {
       "title": "South 24 Parganas 2 (Narendrapur)",
       "lat": "22.431923",
       "lng": "88.472238",
        "description": "kvk.s24parganas2@icar.gov.in",
        "urlsource": "<a href=http://kvk.rkmvu.ac.in/ target=_blank>South 24 Parganas 2 (Narendrapur)</a>",
        "org_id": "t+zFHNF4Uvb2UdrlG0doOg==",
       "zvalue": "4"
   }

,

    {
       "title": "Howrah",
       "lat": "22.699121",
       "lng": "88.103405",
        "description": "kvk.howrah@icar.gov.in",
        "urlsource": "<a href=http://www.howrahkvk.org target=_blank>Howrah</a>",
        "org_id": "t+zFHNF4Uvb1+I+pv79PtA==",
       "zvalue": "4"
   }

,

    {
       "title": "Hooghly",
       "lat": "22.891882",
       "lng": "88.396754",
        "description": "kvk.hooghly@icar.gov.in",
        "urlsource": "<a href=http://www.hooghlykvk.org.in target=_blank>Hooghly</a>",
        "org_id": "t+zFHNF4Uvbn3kS17oe+dw==",
       "zvalue": "4"
   }

,

    {
       "title": "Cooch Behar",
       "lat": "26.397021",
       "lng": "89.389315",
        "description": "kvk.coochbehar@icar.gov.in",
        "urlsource": "<a href=https://www.ubkv.ac.in/cooch-behar-kvk/ target=_blank>Cooch Behar</a>",
        "org_id": "t+zFHNF4UvahH6ujx/bIrA==",
       "zvalue": "4"
   }

,

    {
       "title": "Malda1",
       "lat": "26.701808",
       "lng": "88.380842",
        "description": "kvk.Malda@icar.gov.in",
        "urlsource": "<a href=https://www.maldakvk.ubkv.ac.in target=_blank>Malda1</a>",
        "org_id": "t+zFHNF4UvaU0ReapZC3ww==",
       "zvalue": "4"
   }

,

    {
       "title": "Dakshin Dinajpur",
       "lat": "25.311796",
       "lng": "88.763529",
        "description": "kvk.dakshindinajpur@icar.gov.in",
        "urlsource": "<a href=http://www.ddkvk.ubkv.ac.in target=_blank>Dakshin Dinajpur</a>",
        "org_id": "t+zFHNF4UvYw/8LA3zA8nA==",
       "zvalue": "4"
   }

,

    {
       "title": "Nadia 1",
       "lat": "22.972687",
       "lng": "88.495109",
        "description": "kvk.nadia@icar.gov.in",
        "urlsource": "Nadia 1",
        "org_id": "t+zFHNF4UvbtPZOavYFFEg==",
       "zvalue": "4"
   }

,

    {
       "title": "Birbhum",
       "lat": "23.664399",
       "lng": "87.665758",
        "description": "kvk.birbhum@icar.gov.in",
        "urlsource": "<a href=http://www.rkvk.ac.in target=_blank>Birbhum</a>",
        "org_id": "t+zFHNF4UvbO3Yd8kr6Lhw==",
       "zvalue": "4"
   }

,

    {
       "title": "Darjeeling ",
       "lat": "27.069726",
       "lng": "88.476087",
        "description": "kvk.darjeeling@icar.gov.in",
        "urlsource": "<a href=https://kalimpongkvk.ubkv.ac.in/ target=_blank>Darjeeling </a>",
        "org_id": "t+zFHNF4UvaEp+Em0U1/WQ==",
       "zvalue": "4"
   }

,

    {
       "title": "Purulia",
       "lat": "23.3998",
       "lng": "86.41961",
        "description": "kvk.purulia@icar.gov.in",
        "urlsource": "<a href=https://www.kalyankvk.org/ target=_blank>Purulia</a>",
        "org_id": "t+zFHNF4UvaBMs+i7EVgwg==",
       "zvalue": "4"
   }

,

    {
       "title": "Jalpaiguri ",
       "lat": "26.704941",
       "lng": "88.84647",
        "description": "kvk.jalpaiguri@icar.gov.in",
        "urlsource": "<a href=http://www.jalpaigurikvk.co.in target=_blank>Jalpaiguri </a>",
        "org_id": "PRUX5iPsoVGgHPWjZ/OGVg==",
       "zvalue": "4"
   }

,

    {
       "title": "South 24 Parganas 1 (Nimpith)",
       "lat": "22.155586",
       "lng": "88.440059",
        "description": "kvk.s24parganas1@icar.gov.in",
        "urlsource": "<a href=http://www.rakvknimpith.org.in target=_blank>South 24 Parganas 1 (Nimpith)</a>",
        "org_id": "PRUX5iPsoVFHhoazPxppQw==",
       "zvalue": "4"
   }

,

    {
       "title": "West Medinipur",
       "lat": "22.2721",
       "lng": "87.0033",
        "description": "kvk.wmedinipur@icar.gov.in",
        "urlsource": "West Medinipur",
        "org_id": "PRUX5iPsoVGtYnOpDwrfog==",
       "zvalue": "4"
   }

,

    {
       "title": "Upper Siang",
       "lat": "27.308137",
       "lng": "93.030815",
        "description": "kvk.UpperSiang@icar.gov.in",
        "urlsource": "Upper Siang",
        "org_id": "PRUX5iPsoVHPdg2KVHGJ2g==",
       "zvalue": "4"
   }

,

    {
       "title": "West Siang",
       "lat": "27.980232",
       "lng": "94.691208",
        "description": "kvk.westsiang@icar.gov.in",
        "urlsource": "West Siang",
        "org_id": "PRUX5iPsoVHGRAa2rZKXHg==",
       "zvalue": "4"
   }

,

    {
       "title": "Changlang",
       "lat": "27.351909",
       "lng": "96.015299",
        "description": "kvk.changlang@icar.gov.in",
        "urlsource": "Changlang",
        "org_id": "PRUX5iPsoVESmSmtsvWP6w==",
       "zvalue": "4"
   }

,

    {
       "title": "Anjaw",
       "lat": "28.0808",
       "lng": "96.5181",
        "description": "kvk.anjaw@icar.gov.in",
        "urlsource": "<a href=http://kvkanjaw.nic.in/ target=_blank>Anjaw</a>",
        "org_id": "PRUX5iPsoVEuQ4AZvOyIhw==",
       "zvalue": "4"
   }

,

    {
       "title": "East Kameng",
       "lat": "27.308116",
       "lng": "93.030694",
        "description": "kvk.eastkameng@icar.gov.in",
        "urlsource": "East Kameng",
        "org_id": "PRUX5iPsoVF0OeDTf8cP1A==",
       "zvalue": "4"
   }

,

    {
       "title": "East Siang",
       "lat": "28.1097",
       "lng": "95.1432",
        "description": "kvk.eastsiang@icar.gov.in",
        "urlsource": "<a href=http://www.cau.ac.in target=_blank>East Siang</a>",
        "org_id": "PRUX5iPsoVFwcH97gV/3Cw==",
       "zvalue": "4"
   }

,

    {
       "title": "Lohit",
       "lat": "27.670551",
       "lng": "95.866623",
        "description": "kvk.namsai@icar.gov.in",
        "urlsource": "<a href=http://www.kvknamsai.org.in target=_blank>Lohit</a>",
        "org_id": "PRUX5iPsoVGAIc3KMyL4Rg==",
       "zvalue": "4"
   }

,

    {
       "title": "Lower Dibang Valley",
       "lat": "28.125745",
       "lng": "95.834878",
        "description": "kvk.ldibangvalley@icar.gov.in",
        "urlsource": "<a href=http://www.kvkbalek.nic.in/ target=_blank>Lower Dibang Valley</a>",
        "org_id": "Ki1fyldtqwBMgAzNfikWhw==",
       "zvalue": "4"
   }

,

    {
       "title": "Lower Subansiri",
       "lat": "27.515863",
       "lng": "93.784185",
        "description": "kvk.lowersubansiri@icar.gov.in",
        "urlsource": "<a href=http://kvklowersubansiri.nic.in/ target=_blank>Lower Subansiri</a>",
        "org_id": "Ki1fyldtqwDJq6iOOOqJuw==",
       "zvalue": "4"
   }

,

    {
       "title": "Papum Pare",
       "lat": "27.123501",
       "lng": "93.770929",
        "description": "kvk.papumpare@icar.gov.in",
        "urlsource": "<a href=http://www.kvkpapumpare.nic.in/ target=_blank>Papum Pare</a>",
        "org_id": "Ki1fyldtqwCPQs1iW90RzQ==",
       "zvalue": "4"
   }

,

    {
       "title": "Tawang",
       "lat": "27.576899",
       "lng": "91.872147",
        "description": "kvk.tawang@icar.gov.in",
        "urlsource": "<a href=http://www.kvktawang.nic.in/ target=_blank>Tawang</a>",
        "org_id": "Ki1fyldtqwBDEOx5OFlJkw==",
       "zvalue": "4"
   }

,

    {
       "title": "Tirap",
       "lat": "27.241193",
       "lng": "95.498148",
        "description": "kvk.tirap@icar.gov.in",
        "urlsource": "<a href=http://www.kvkrtirap.org.in target=_blank>Tirap</a>",
        "org_id": "Ki1fyldtqwCZ91XBNHAQ6A==",
       "zvalue": "4"
   }

,

    {
       "title": "Upper Subansiri",
       "lat": "27.799858",
       "lng": "94.3478",
        "description": "kvk.uppersubansiri@icar.gov.in",
        "urlsource": "<a href=http://kvkuppersubansiri.nic.in/ target=_blank>Upper Subansiri</a>",
        "org_id": "Ki1fyldtqwALQQw2jxDIxg==",
       "zvalue": "4"
   }

,

    {
       "title": "West Kameng",
       "lat": "27.404341",
       "lng": "92.304174",
        "description": "kvk.westkameng@icar.gov.in",
        "urlsource": "<a href=http://kvkwestkameng.gov.in/ target=_blank>West Kameng</a>",
        "org_id": "Ki1fyldtqwC7mglQZTYJGA==",
       "zvalue": "4"
   }

,

    {
       "title": "Baksa",
       "lat": "26.56156",
       "lng": "91.3437",
        "description": "kvk.baksa@icar.gov.in",
        "urlsource": "<a href=http://kvkbaksa.aau.ac.in target=_blank>Baksa</a>",
        "org_id": "Ki1fyldtqwC/oM5qJxmoaQ==",
       "zvalue": "4"
   }

,

    {
       "title": "Barpeta",
       "lat": "26.4412",
       "lng": "90.981522",
        "description": "kvk.barpeta@icar.gov.in",
        "urlsource": "<a href=http://www.kvkbarpeta.org target=_blank>Barpeta</a>",
        "org_id": "Ki1fyldtqwAvLgtGb5smdA==",
       "zvalue": "4"
   }

,

    {
       "title": "Bongaigaon",
       "lat": "26.335361",
       "lng": "90.664107",
        "description": "kvk.bongaigaon@icar.gov.in",
        "urlsource": "<a href=http://kvkbongaigaon.nic.in/ target=_blank>Bongaigaon</a>",
        "org_id": "Ki1fyldtqwD6nSSfdsbZ0g==",
       "zvalue": "4"
   }

,

    {
       "title": "Cachar",
       "lat": "24.857761",
       "lng": "92.741454",
        "description": "kvk.cachar@icar.gov.in",
        "urlsource": "<a href=http://kvkcachar.nic.in/ target=_blank>Cachar</a>",
        "org_id": "Ftd2YIpa66u6Rkeqq9VoSw==",
       "zvalue": "4"
   }

,

    {
       "title": "Darrang",
       "lat": "26.450177",
       "lng": "92.031065",
        "description": "kvk.darrang@icar.gov.in",
        "urlsource": "<a href=http://kvkdarrang.nic.in/ target=_blank>Darrang</a>",
        "org_id": "Ftd2YIpa66uh8PG1aSWh4A==",
       "zvalue": "4"
   }

,

    {
       "title": "Dhemaji",
       "lat": "27.591369",
       "lng": "94.731956",
        "description": "kvk.dhemaji@icar.gov.in",
        "urlsource": "Dhemaji",
        "org_id": "Ftd2YIpa66sOQTbRES84sg==",
       "zvalue": "4"
   }

,

    {
       "title": "Dhubri",
       "lat": "26.232336",
       "lng": "90.28241",
        "description": "kvk.dhubri@icar.gov.in",
        "urlsource": "Dhubri",
        "org_id": "Ftd2YIpa66uQyW2oRt5T6w==",
       "zvalue": "4"
   }

,

    {
       "title": "Dibrugarh",
       "lat": "27.407635",
       "lng": "95.043242",
        "description": "kvk.dibrugarh@icar.gov.in",
        "urlsource": "<a href=https://kvkdibrugarh.aau.ac.in/ target=_blank>Dibrugarh</a>",
        "org_id": "Ftd2YIpa66tfVQLP0199ew==",
       "zvalue": "4"
   }

,

    {
       "title": "Goalpara",
       "lat": "25.963148",
       "lng": "90.78716",
        "description": "kvk.goalpara@icar.gov.in",
        "urlsource": "Goalpara",
        "org_id": "Ftd2YIpa66uAl4p+mmt+dQ==",
       "zvalue": "4"
   }

,

    {
       "title": "Golaghat",
       "lat": "26.595229",
       "lng": "93.841675",
        "description": "kvk.golaghat@icar.gov.in",
        "urlsource": "<a href=http://kvkgolaghat.aau.ac.in target=_blank>Golaghat</a>",
        "org_id": "Ftd2YIpa66t8cHT+rz/1ig==",
       "zvalue": "4"
   }

,

    {
       "title": "Hailakandi",
       "lat": "24.699622",
       "lng": "92.560176",
        "description": "kvk.hailakandi@icar.gov.in",
        "urlsource": "<a href=http://kvkhailakandi.nic.in target=_blank>Hailakandi</a>",
        "org_id": "Ftd2YIpa66vxy2QYEhPd7A==",
       "zvalue": "4"
   }

,

    {
       "title": "Jorhat",
       "lat": "26.830636",
       "lng": "94.457449",
        "description": "kvk.jorhat@icar.gov.in",
        "urlsource": "<a href=http://kvkjorhat.aau.ac.in target=_blank>Jorhat</a>",
        "org_id": "Ftd2YIpa66t04VPXbPV6Zw==",
       "zvalue": "4"
   }

,

    {
       "title": "Kamrup",
       "lat": "26.107361",
       "lng": "91.609107",
        "description": "kvk.kamrup@icar.gov.in",
        "urlsource": "<a href=https://kvkkamrup.aau.ac.in/ target=_blank>Kamrup</a>",
        "org_id": "Ftd2YIpa66vd6sSuBUnGpw==",
       "zvalue": "4"
   }

,

    {
       "title": "Karbi Anglong",
       "lat": "25.868024",
       "lng": "93.445102",
        "description": "kvk.karbianglong@icar.gov.in",
        "urlsource": "<a href=http://www.kvkdiphu.com/ target=_blank>Karbi Anglong</a>",
        "org_id": "p+9xMdVC3PTgsG3WXtOnJA==",
       "zvalue": "4"
   }

,

    {
       "title": "Karimganj",
       "lat": "24.864517",
       "lng": "92.309318",
        "description": "kvk.karimganj@icar.gov.in",
        "urlsource": "Karimganj",
        "org_id": "p+9xMdVC3PQ1neWrVJccHw==",
       "zvalue": "4"
   }

,

    {
       "title": "Kokrajhar",
       "lat": "26.447139",
       "lng": "89.945388",
        "description": "kvk.kokrajhar@icar.gov.in",
        "urlsource": "<a href=http://www.kvkkokrajhar.aau.ac.in target=_blank>Kokrajhar</a>",
        "org_id": "p+9xMdVC3PSJ/PlhujINVg==",
       "zvalue": "4"
   }

,

    {
       "title": "Lakhimpur",
       "lat": "27.232226",
       "lng": "94.105625",
        "description": "kvk.lakhimpur@icar.gov.in",
        "urlsource": "<a href=http://www.aau.ac.in/dee/kvklakhimpur target=_blank>Lakhimpur</a>",
        "org_id": "p+9xMdVC3PTlYAHlnxE3CQ==",
       "zvalue": "4"
   }

,

    {
       "title": "Morigaon",
       "lat": "26.279535",
       "lng": "92.312535",
        "description": "kvk.morigaon@icar.gov.in",
        "urlsource": "<a href=http://kvkmorigaon.aau.ac.in/ target=_blank>Morigaon</a>",
        "org_id": "p+9xMdVC3PQ8KgG37n0M5g==",
       "zvalue": "4"
   }

,

    {
       "title": "Nagaon 1",
       "lat": "26.362598",
       "lng": "92.646226",
        "description": "kvk.nagaon@icar.gov.in",
        "urlsource": "<a href=http://www.kvknagaon.aau.ac.in/ target=_blank>Nagaon 1</a>",
        "org_id": "p+9xMdVC3PTzFXbnbMYPHw==",
       "zvalue": "4"
   }

,

    {
       "title": "Nalbari",
       "lat": "26.481197",
       "lng": "91.436243",
        "description": "kvk.nalbari@icar.gov.in",
        "urlsource": "<a href=http://kvknalbari.aau.ac.in target=_blank>Nalbari</a>",
        "org_id": "p+9xMdVC3PQnKcL+ieOpLg==",
       "zvalue": "4"
   }

,

    {
       "title": "Sivasagar",
       "lat": "26.920769",
       "lng": "94.800341",
        "description": "kvk.sivasagar@icar.gov.in",
        "urlsource": "<a href=http://www.kvksivasagar.nic.in/ target=_blank>Sivasagar</a>",
        "org_id": "p+9xMdVC3PQp18eEwdugjg==",
       "zvalue": "4"
   }

,

    {
       "title": "Sonitpur",
       "lat": "26.704009",
       "lng": "92.822802",
        "description": "kvk.sonitpur@icar.gov.in",
        "urlsource": "<a href=http://www.kvksonitpur.nic.in target=_blank>Sonitpur</a>",
        "org_id": "p+9xMdVC3PRvJKFDlgS+fg==",
       "zvalue": "4"
   }

,

    {
       "title": "Tinsukia",
       "lat": "27.520608",
       "lng": "95.352756",
        "description": "kvk.tinsukia@icar.gov.in",
        "urlsource": "<a href=http://kvktinsukia.nic.in/ target=_blank>Tinsukia</a>",
        "org_id": "p+9xMdVC3PS9jtI0tSENSw==",
       "zvalue": "4"
   }

,

    {
       "title": "Udalguri",
       "lat": "26.652992",
       "lng": "92.174273",
        "description": "kvk.udalguri@icar.gov.in",
        "urlsource": "<a href=http://www.kvkudalguri.aau.ac.in target=_blank>Udalguri</a>",
        "org_id": "3eQ/Ige8OYXvlnasFgKXdA==",
       "zvalue": "4"
   }

,

    {
       "title": "Churachandpur",
       "lat": "24.336433",
       "lng": "93.664295",
        "description": "kvk.churachandpur@icar.gov.in",
        "urlsource": "Churachandpur",
        "org_id": "3eQ/Ige8OYWkn8zQzpPY4w==",
       "zvalue": "4"
   }

,

    {
       "title": "Tamenglong ",
       "lat": "24.768952",
       "lng": "93.631763",
        "description": "kvk.tamenglong@icar.gov.in",
        "urlsource": "Tamenglong ",
        "org_id": "3eQ/Ige8OYVgg9JuDDEvjQ==",
       "zvalue": "4"
   }

,

    {
       "title": "Imphal East",
       "lat": "24.727565",
       "lng": "94.043666",
        "description": "kvk.imphaleast@icar.gov.in",
        "urlsource": "Imphal East",
        "org_id": "3eQ/Ige8OYUd6G0rjkLddw==",
       "zvalue": "4"
   }

,

    {
       "title": "Bishnupur",
       "lat": "24.706139",
       "lng": "93.853721",
        "description": "kvk.bishnupur@icar.gov.in",
        "urlsource": "Bishnupur",
        "org_id": "3eQ/Ige8OYXdTEad73C59A==",
       "zvalue": "4"
   }

,

    {
       "title": "Chandel",
       "lat": "24.325041",
       "lng": "94.021841",
        "description": "kvk.chandel@icar.gov.in",
        "urlsource": "<a href=https://kvkchandel.in/ target=_blank>Chandel</a>",
        "org_id": "3eQ/Ige8OYUO9lzhCY8Vmg==",
       "zvalue": "4"
   }

,

    {
       "title": "Imphal West",
       "lat": "24.82841",
       "lng": "93.926037",
        "description": "kvk.imphalwest@icar.gov.in",
        "urlsource": "<a href=http://kvkimphalwest.org target=_blank>Imphal West</a>",
        "org_id": "3eQ/Ige8OYVhpit+ReqCug==",
       "zvalue": "4"
   }

,

    {
       "title": "Senapati",
       "lat": "25.223996",
       "lng": "93.997898",
        "description": "kvk.senapati@icar.gov.in",
        "urlsource": "<a href=http://www.kvksenapati.com/ target=_blank>Senapati</a>",
        "org_id": "3eQ/Ige8OYVJ/clgPE82iA==",
       "zvalue": "4"
   }

,

    {
       "title": "Thoubal",
       "lat": "24.612931",
       "lng": "94.025562",
        "description": "kvk.thoubal@icar.gov.in",
        "urlsource": "<a href=http://www.kvkthoubal.org target=_blank>Thoubal</a>",
        "org_id": "3eQ/Ige8OYUHL+76pZ6xSQ==",
       "zvalue": "4"
   }

,

    {
       "title": "Ukhrul",
       "lat": "25.066098",
       "lng": "94.3466",
        "description": "kvk.ukhrul@icar.gov.in",
        "urlsource": "<a href=http://www.kvkukhrul.org/ target=_blank>Ukhrul</a>",
        "org_id": "3eQ/Ige8OYUbRt5GBjnuqQ==",
       "zvalue": "4"
   }

,

    {
       "title": "East Khasi Hills",
       "lat": "25.547277",
       "lng": "91.843882",
        "description": "kvk.eastkhasihills@icar.gov.in",
        "urlsource": "<a href=http://kvkeastkhasihills.nic.in/ target=_blank>East Khasi Hills</a>",
        "org_id": "WA8UDWljwKI9YIBi60W9gA==",
       "zvalue": "4"
   }

,

    {
       "title": "West Jaintia Hills",
       "lat": "25.450851",
       "lng": "92.211256",
        "description": "kvk.westjhills@icar.gov.in",
        "urlsource": "<a href=http://kvkwestjaintiahills.nic.in target=_blank>West Jaintia Hills</a>",
        "org_id": "WA8UDWljwKJ6HLZ4FSTB1g==",
       "zvalue": "4"
   }

,

    {
       "title": "Ribhoi",
       "lat": "25.684969",
       "lng": "91.914237",
        "description": "kvk.ribhoi@icar.gov.in",
        "urlsource": "<a href=http://www.kvkribhoi.nic.in target=_blank>Ribhoi</a>",
        "org_id": "WA8UDWljwKLT4zkMLN0SoA==",
       "zvalue": "4"
   }

,

    {
       "title": "West Garo Hills",
       "lat": "25.496909",
       "lng": "90.210379",
        "description": "kvk.westgarohills@icar.gov.in",
        "urlsource": "<a href=http://www.kvkwestgarohills.nic.in target=_blank>West Garo Hills</a>",
        "org_id": "WA8UDWljwKKWRd3ugQlEBg==",
       "zvalue": "4"
   }

,

    {
       "title": "West Khasi Hills",
       "lat": "25.469898",
       "lng": "91.482788",
        "description": "kvk.westkhasihills@icar.gov.in",
        "urlsource": "<a href=http://kvkwestkhasihills.nic.in target=_blank>West Khasi Hills</a>",
        "org_id": "WA8UDWljwKIv5gEqe8CJkQ==",
       "zvalue": "4"
   }

,

    {
       "title": "Saiha",
       "lat": "22.494696",
       "lng": "92.99901",
        "description": "kvk.siaha@icar.gov.in",
        "urlsource": "Saiha",
        "org_id": "WA8UDWljwKIfVhy1G8/0Yw==",
       "zvalue": "4"
   }

,

    {
       "title": "Champhai",
       "lat": "23.458232",
       "lng": "93.327584",
        "description": "kvk.champhai@icar.gov.in",
        "urlsource": "<a href=http://www.kvkchamphaidistrict.mizoram.gov.in target=_blank>Champhai</a>",
        "org_id": "WA8UDWljwKK5lqxGNUtQjw==",
       "zvalue": "4"
   }

,

    {
       "title": "Aizawl",
       "lat": "23.808011",
       "lng": "92.733675",
        "description": "kvk.aizawl@icar.gov.in",
        "urlsource": "<a href=http://www.kvkaizawl.nic.in/ target=_blank>Aizawl</a>",
        "org_id": "WA8UDWljwKLU0LNHFuc9BQ==",
       "zvalue": "4"
   }

,

    {
       "title": "Kolasib",
       "lat": "24.208192",
       "lng": "92.675693",
        "description": "kvk.kolasib@icar.gov.in",
        "urlsource": "<a href=http://kvkkolasib.mizoram.gov.in target=_blank>Kolasib</a>",
        "org_id": "WA8UDWljwKJLz7yHLwNmjA==",
       "zvalue": "4"
   }

,

    {
       "title": "Lawngtlai",
       "lat": "22.50359",
       "lng": "92.893965",
        "description": "kvk.lawngtlai@icar.gov.in",
        "urlsource": "<a href=http://www.kvklawngtlai.mizoram.gov.in target=_blank>Lawngtlai</a>",
        "org_id": "WA8UDWljwKJlzX2Aqq3o7g==",
       "zvalue": "4"
   }

,

    {
       "title": "Lunglei",
       "lat": "22.953755",
       "lng": "92.932096",
        "description": "kvk.lunglei@icar.gov.in",
        "urlsource": "<a href=https://kvklunglei.mizoram.gov.in/ target=_blank>Lunglei</a>",
        "org_id": "oTGuGYUiCPSgDcs1kaB1Yw==",
       "zvalue": "4"
   }

,

    {
       "title": "Mamit",
       "lat": "23.833902",
       "lng": "92.627428",
        "description": "kvk.mamit@icar.gov.in",
        "urlsource": "<a href=http://kvkmamit.mizoram.gov.in target=_blank>Mamit</a>",
        "org_id": "oTGuGYUiCPQHVJi7/9ae3g==",
       "zvalue": "4"
   }

,

    {
       "title": "Serchhip",
       "lat": "23.125036",
       "lng": "93.055878",
        "description": "kvk.serchhip@icar.gov.in",
        "urlsource": "<a href=https://kvkserchhip.mizoram.gov.in/ target=_blank>Serchhip</a>",
        "org_id": "oTGuGYUiCPQpOj3/hJzHsw==",
       "zvalue": "4"
   }

,

    {
       "title": "Mon",
       "lat": "26.591922",
       "lng": "94.898871",
        "description": "kvk.mon@icar.gov.in",
        "urlsource": "Mon",
        "org_id": "oTGuGYUiCPTTTsPzBeUtAA==",
       "zvalue": "4"
   }

,

    {
       "title": "Kohima",
       "lat": "25.973461",
       "lng": "94.207722",
        "description": "kvk.kohima@icar.gov.in",
        "urlsource": "Kohima",
        "org_id": "oTGuGYUiCPQdIK6CObAXiQ==",
       "zvalue": "4"
   }

,

    {
       "title": "Zunheboto",
       "lat": "26.22105",
       "lng": "94.477851",
        "description": "kvk.zunheboto@icar.gov.in",
        "urlsource": "<a href=http://www.kvkzunheboto.in target=_blank>Zunheboto</a>",
        "org_id": "oTGuGYUiCPQENEyxoOGF6g==",
       "zvalue": "4"
   }

,

    {
       "title": "East Medinipur",
       "lat": "22.179374",
       "lng": "87.870861",
        "description": "",
        "urlsource": "<a href=http://www.purbamedinipurkvk.org/ target=_blank>East Medinipur</a>",
        "org_id": "7LbUSLIRgzm8gflhEu7+Pw==",
       "zvalue": "4"
   }

,

    {
       "title": "Longleng",
       "lat": "26.592646",
       "lng": "94.767611",
        "description": "kvk.longleng@icar.gov.in",
        "urlsource": "Longleng",
        "org_id": "oTGuGYUiCPTIoNDiGdwxug==",
       "zvalue": "4"
   }

,

    {
       "title": "Dimapur ",
       "lat": "25.759232",
       "lng": "93.867088",
        "description": "kvk.dimapur @icar.gov.in",
        "urlsource": "<a href=http://kvkdimapur.nic.in target=_blank>Dimapur </a>",
        "org_id": "oTGuGYUiCPRTSei4fRDtHg==",
       "zvalue": "4"
   }

,

    {
       "title": "Mokokchung",
       "lat": "26.322439",
       "lng": "94.513335",
        "description": "kvk.mokokchung@icar.gov.in",
        "urlsource": "<a href=http://www.kvkmokokchung.in target=_blank>Mokokchung</a>",
        "org_id": "oTGuGYUiCPTfB+8E4beZLQ==",
       "zvalue": "4"
   }

,

    {
       "title": "Phek",
       "lat": "25.618479",
       "lng": "94.329682",
        "description": "kvk.phek@icar.gov.in",
        "urlsource": "<a href=http://www.kvkphek.nic.in target=_blank>Phek</a>",
        "org_id": "mBfzR1quLT1uQWLBUc5oGw==",
       "zvalue": "4"
   }

,

    {
       "title": "Tuensang",
       "lat": "26.236167",
       "lng": "94.813494",
        "description": "kvk.tuensang@icar.gov.in",
        "urlsource": "Tuensang",
        "org_id": "mBfzR1quLT3yhm8Vc9UNhA==",
       "zvalue": "4"
   }

,

    {
       "title": "Wokha",
       "lat": "26.054937",
       "lng": "94.260163",
        "description": "kvk.wokha@icar.gov.in",
        "urlsource": "<a href=http://kvkwokha.nic.in target=_blank>Wokha</a>",
        "org_id": "mBfzR1quLT0n7QptfvwD2g==",
       "zvalue": "4"
   }

,

    {
       "title": "Morbi",
       "lat": "22.812676",
       "lng": "70.822805",
        "description": "",
        "urlsource": "<a href=http://www.jau.in/index.php/extension-40/krishi-vigyan-kendras-kvks/morbi , https://hemangidmehta.wixsite.com/website target=_blank>Morbi</a>",
        "org_id": "7LbUSLIRgzlt61k/LdLR3Q==",
       "zvalue": "4"
   }

,

    {
       "title": "East Sikkim",
       "lat": "27.231544",
       "lng": "88.589739",
        "description": "kvk.eastsikkim@icar.gov.in",
        "urlsource": "<a href=http://kvkeastsikkim.nic.in/ target=_blank>East Sikkim</a>",
        "org_id": "mBfzR1quLT0AO0oC9ZsciQ==",
       "zvalue": "4"
   }

,

    {
       "title": "North Sikkim",
       "lat": "27.493259",
       "lng": "88.53599",
        "description": "kvk.northsikkim@icar.gov.in",
        "urlsource": "<a href=http://kvknorthsikkim.gov.in/ target=_blank>North Sikkim</a>",
        "org_id": "mBfzR1quLT3TeDiEIhFr+w==",
       "zvalue": "4"
   }

,

    {
       "title": "South Sikkim",
       "lat": "27.165645",
       "lng": "88.477621",
        "description": "kvk.southsikkim@icar.gov.in",
        "urlsource": "<a href=http://www.kvksouthsikkim.com target=_blank>South Sikkim</a>",
        "org_id": "mBfzR1quLT2KfcnB86q7Kw==",
       "zvalue": "4"
   }

,

    {
       "title": "West Sikkim",
       "lat": "27.294381",
       "lng": "88.247125",
        "description": "kvk.westsikkim@icar.gov.in",
        "urlsource": "<a href=http://www.kvkwestsikkim.gov.in/ target=_blank>West Sikkim</a>",
        "org_id": "mBfzR1quLT1LJBvMzCj8Ow==",
       "zvalue": "4"
   }

,

    {
       "title": "Dhalai",
       "lat": "24.014059",
       "lng": "91.834381",
        "description": "kvk.dhalai@icar.gov.in",
        "urlsource": "<a href=http://kvkdhalai.org.in/ target=_blank>Dhalai</a>",
        "org_id": "mBfzR1quLT0ioI4wDN2vDw==",
       "zvalue": "4"
   }
